id,name,type,region,locality,lat,lon
1,"The ""second"" home shopping store ""IJ Churin and Co. ""and store the Platonic brothers",architecture,Amur region,Blagoveshchensk,127.548877,49.811568
2,"""Town of security officers""",architecture,Sverdlovsk region,Ekaterinburg,60.621271,56.841798
3,"""Palace for the beloved""",architecture,Kursk region,Safonovka,60.621271,51.491293
4,"""The House with The Firebird"" (manor Zhelyabov LK)",architecture,Tomsk region,Tomsk,85.050946,56.469513
5,"""House with the ghosts""",architecture,Novosibirsk region,Novosibirsk,82.958761,55.041787
6,"""House-decanter""",architecture,Sverdlovsk region,Verkh-neyvinsky,60.131644,57.265584
7,"""Emelyanovsky number""",architecture,Yaroslavskaya oblast,Rostov,39.414526,57.185866
8,"""Myasnikovskaya» Hospital",architecture,Yaroslavskaya oblast,Rostov,39.414526,57.185866
9,"""The track Vejnbauma""",architecture,Belgorod region,Belgorod,36.587223,50.59566
10,"""Mansion Khomich""",architecture,Tomsk region,Tomsk,84.947649,56.48464
11,"""Gray Horse""",architecture,Primorsky Krai,Vladivostok,131.885485,43.115536
12,"""Photography"" IM Babykin",architecture,Kurgan region,Mound,65.341118,55.441004
13,"""School LN Tolstoy's ""in-house on Pyatnitskaya",architecture,Moscow,,Not found,
14,Avramievsky gate tower,architecture,Smolensk region,Smolensk,32.045251,54.782635
15,Administrative building distillery factory D. Smolin,architecture,Kurgan region,Mound,Not found,
16,Volgograd Region Administration (the building of Party Committee and Executive Committee),architecture,Volgograd region,Volgograd,44.516948,48.707067
17,Ekaterinburg City Administration,architecture,Sverdlovsk region,Ekaterinburg,61.077166,56.744732
18,Azov Gunpowder Cellar,architecture,Rostov region,Azov,39.408391,47.119291
19,Academy of Arts,architecture,St. Petersburg,St. Petersburg,30.345926,59.991093
20,Alexander Mariinsky five-class school,architecture,Irkutsk region,Irkutsk,104.281047,52.287054
21,Alekseevskaya women's gymnasium,architecture,Amur region,Blagoveshchensk,127.527173,50.29064
22,Anapa lighthouse,architecture,Krasnodar region,Anapa,37.304366,44.953155
23,The ensemble Alexander Garden,architecture,Kirov region,Kirov,51.802725,58.284554
24,Verkhotursk Kremlin ensemble,architecture,Sverdlovsk region,Verkhotur'e,60.807581,58.860518
25,The ensemble of the Church of Transfiguration,architecture,Kostroma region,Nicolo-Shanga,45.5395,58.452015
26,The ensemble of the government offices in Kaluga,architecture,Kaluga region,Kaluga,36.167539,54.53284
27,Ensemble Rogozhskaya Yamskaya Sloboda,architecture,Moscow,,37.681173,55.746512
28,Ensemble Trading Rows,architecture,Kostroma region,Soligalich,42.285973,59.077591
29,Ensemble Railway Hospital,architecture,Volgograd region,Volgograd,44.516948,48.707067
30,Ensemble factory settlement Kynovskogo plant,architecture,Perm,Kyn,Not found,
31,Ensemble merchant houses on the waterfront,architecture,Ivanovo region,Dance,Not found,
32,The ensemble of the first girls' school,architecture,Sverdlovsk region,Ekaterinburg,60.592336,56.886105
33,Ensemble Lenin area (Round Square),architecture,The Republic of Karelia,Petrozavodsk,34.362293,61.789836
34,"Ensemble sports complex stadium ""Dynamo""",architecture,Volgograd region,Volgograd,44.506204,48.711895
35,The ensemble of the Church of Constantine and Helen,architecture,Pskov region,Pskov,Not found,
36,"Pharmacy ""the arrow""",architecture,Kaluga region,Kaluga,36.261215,54.513845
37,Drugstore berms,architecture,Kirov region,Kirov,49.668014,58.603591
38,pharmacy Veyersberga,architecture,Sverdlovsk region,Ekaterinburg,60.597465,56.838011
39,pharmacy Kruger,architecture,Altai region,Barnaul,83.776856,53.346785
40,Pharmacy mining department,architecture,Sverdlovsk region,Ekaterinburg,60.449899,56.796382
41,Arakcheyev Cadet Corps,architecture,Nizhny Novgorod Region,Nizhny Novgorod,44.006516,56.326797
42,Arch of the 140th anniversary of the city - a resort Hot Key,architecture,Krasnodar region,Hot key,39.136426,44.634246
43,"Arch ""Golden Gate"" ( ""Altn Bosch"")",architecture,Republic of Kalmykia,Elista,44.269759,46.307743
44,Arch in honor of the 50th anniversary of the resort Hot Key,architecture,Krasnodar region,Hot key,39.136426,44.634246
45,triumphal Arch,architecture,Kabardino-Balkar Republic,,43.408274,43.494396
46,Arsenal. Izhevsk Kremlin,architecture,Udmurt republic,Izhevsk,53.180418,56.822306
47,Arsenal'na (Voljskaya) tower,architecture,Yaroslavskaya oblast,Yaroslavl,39.893804,57.626559
48,Arkhangelsk settlement,architecture,Mari El Republic,Yoshkar-Ola,47.902995,56.632818
49,"Archaeological complex ""Gnezdovo""",architecture,Smolensk region,,31.863863,54.782464
50,Bishops house,architecture,Perm,Permian,56.253967,58.006473
51,Bishops house,architecture,Penza region,Penza,45.004715,53.173479
52,Bishops House on the Pechora Compound,architecture,Pskov region,Pskov,Not found,
53,The architectural ensemble of the Cathedral Hill,architecture,Smolensk region,Smolensk,Not found,
54,The city's skyline Kyshtym,architecture,Chelyabinsk region,Argayash,Not found,
55,The architectural ensemble of the square named after Lenin,architecture,Rostov region,Volgodonsk,42.156436,47.515772
56,The architectural ensemble of the village Velikoretskoye,architecture,Kirov region,Velikoretskoye,49.16272,58.955449
57,The architectural ensemble of the central square,architecture,Kurgan region,Mound,Not found,
58,The architectural complex Lezgor,architecture,Republic of North Ossetia - Alania,Lezgor,43.770268,43.015099
59,The architectural complex of the Soviet area,architecture,Republic of Bashkortostan,Ufa,55.958727,54.735147
60,The architectural complex of the Suzdal Kremlin,architecture,Vladimir region,Suzdal,40.449457,56.419836
61,The architectural complex Aphids,architecture,Republic of North Ossetia - Alania,,43.892359,42.666152
62,The architectural complex of the village Galiat,architecture,Republic of North Ossetia - Alania,Galiat,43.847811,42.920194
63,The architectural complex of shops,architecture,Kirov region,Kirov,49.668014,58.603591
64,The architectural complex of shops in Kirov,architecture,Kirov region,Kirov,49.689313,58.521682
65,Astrakhan State Conservatory,architecture,Astrakhan region,Astrakhan,47.969722,46.436952
66,Astrakhan Kremlin,architecture,Astrakhan region,Astrakhan,47.948719,46.286977
67,Bazanov orphanage,architecture,Irkutsk region,Irkutsk,113.795679,57.820324
68,Baidar gates,architecture,Sevastopol,Orlinoe,33.77307,44.444772
69,bacteriological Institute,architecture,Kirov region,Kirov,49.668014,58.603591
70,Balga,architecture,Kaliningrad region,,19.975954,54.545219
71,Bank of Volga-Kama,architecture,Yaroslavskaya oblast,Rybinsk,38.858406,58.048454
72,Bank for Foreign Trade,architecture,Kirov region,Kirov,49.668014,58.603591
73,Manor House Lyakhov,architecture,Republic of Bashkortostan,Spartak,54.349764,54.18571
74,Tower complexes Vovnushki,architecture,The Republic of Ingushetia,,44.994852,42.800697
75,Tower apartment complex Huli,architecture,The Republic of Ingushetia,,44.804086,42.811544
76,Tower complex Bein,architecture,The Republic of Ingushetia,Bain,44.714281,42.831627
77,Tower complex Bâlgan,architecture,The Republic of Ingushetia,,44.789731,42.798586
78,Tower complex Gadaborš,architecture,The Republic of Ingushetia,,44.900017,42.821597
79,Tower complex Maps,architecture,The Republic of Ingushetia,,44.880371,42.827264
80,Tower complex Lyazhgi,architecture,The Republic of Ingushetia,Lyazhgi,44.734484,42.808773
81,Tower complex Motsar,architecture,Chechen Republic,,45.370285,42.890173
82,Tower complex Nij,architecture,The Republic of Ingushetia,Pyaling,44.98798,42.825227
83,Tower complex Ozdik,architecture,The Republic of Ingushetia,Lamey,44.900807,42.830173
84,Tower complex SALGA,architecture,The Republic of Ingushetia,,44.819986,42.797918
85,Tower complex Targ,architecture,The Republic of Ingushetia,Targim,44.942354,42.835125
86,Tower complex Tori,architecture,The Republic of Ingushetia,,44.920534,42.843085
87,Tower complex Cori,architecture,The Republic of Ingushetia,,45.094394,42.806319
88,Tower complex Soan,architecture,The Republic of Ingushetia,Shoani,Not found,
89,Tower complex Erzi,architecture,The Republic of Ingushetia,,44.759574,42.80362
90,Tower complex in the village of Egikal,architecture,The Republic of Ingushetia,Egikkhal,Not found,
91,towers Tuaeva,architecture,Republic of North Ossetia - Alania,medicine,43.910711,42.671548
92,Towers kind Gagieva,architecture,The Republic of Ingushetia,Alkun,45.012818,42.979241
93,tower Abisalova,architecture,Republic of North Ossetia - Alania,Dunta,43.849886,42.900978
94,tower Bzykovyh,architecture,Republic of North Ossetia - Alania,Donisar,44.19872,42.862933
95,tower Bubleyka,architecture,Smolensk region,Smolensk,32.045251,54.782635
96,Thunder tower,architecture,Smolensk region,Smolensk,32.045251,54.782635
97,tower Dolgochevskaya,architecture,Smolensk region,Smolensk,32.045251,54.782635
98,tower Eloeva,architecture,Republic of North Ossetia - Alania,,44.262033,43.092669
99,tower Kantemirovs,architecture,Republic of North Ossetia - Alania,Quss,43.633689,42.904042
100,"Tower Kokui and ""Time Gallery""",architecture,Novgorod region,Novgorod,Not found,
101,Kurt and Taga Tower,architecture,Republic of North Ossetia - Alania,upper Fiagdon,44.306958,42.83418
102,tower Mamsurova,architecture,Republic of North Ossetia - Alania,,44.262033,43.092669
103,Tower Moss (Makhovaia),architecture,Smolensk region,Smolensk,32.045251,54.782635
104,Eagle tower,architecture,Smolensk region,Smolensk,32.045251,54.782635
105,tower Pozdnyakov,architecture,Smolensk region,Smolensk,32.045251,54.782635
106,Town Hall tower,architecture,Leningrad region,Vyborg,28.730117,60.714211
107,Concorde tower,architecture,The Republic of Ingushetia,Magas,44.81624,43.171501
108,tower Taymazov,architecture,Republic of North Ossetia - Alania,Quss,43.633689,42.904042
109,tower Hatagovyh,architecture,Republic of North Ossetia - Alania,Donifars,43.7646,42.999975
110,tower Hestanovyh,architecture,Republic of North Ossetia - Alania,Donisar,44.19872,42.862933
111,Shamil tower,architecture,Kursk region,Lgov,35.259432,51.656942
112,tower of the winds,architecture,Sevastopol,,33.525369,44.616604
113,tower lovers,architecture,Kabardino-Balkar Republic,Nalchik,43.607072,43.485259
114,tower krovniki,architecture,Republic of North Ossetia - Alania,,44.262033,43.092669
115,Tower krovniki over Kahtisarom,architecture,Republic of North Ossetia - Alania,Koban,Not found,
116,The clock tower at the State Bank,architecture,Nizhny Novgorod Region,Nizhny Novgorod,Not found,
117,White Tower,architecture,Sverdlovsk region,Ekaterinburg,61.372065,57.389991
118,White tower of Nizhny Novgorod Kremlin,architecture,Nizhny Novgorod Region,Nizhny Novgorod,44.448685,55.830038
119,The Kremlin Bilozerske,architecture,Vologda Region,Shi's,37.789016,60.030843
120,Belozersky Kremlin and the city wall,architecture,Vologda Region,Shi's,37.789016,60.030843
121,Belorussky Train Station,architecture,Moscow,,37.581496,55.776618
122,The White house,architecture,Irkutsk region,Irkutsk,104.357736,52.249324
123,birch house,architecture,Leningrad region,,28.617441,60.300988
124,AN gazebo Ostrovsky,architecture,Kostroma region,Kostroma,40.913797,57.771907
125,arbor Shamil,architecture,The Republic of Dagestan,Guniʙ,46.964318,42.387091
126,Arbor on the Volga embankment,architecture,Yaroslavskaya oblast,Yaroslavl,Not found,
127,Academy of Sciences Library,architecture,St. Petersburg,St. Petersburg,30.315868,59.939095
128,Biryuchanskie shopping arcade,architecture,Belgorod region,lone wolf,38.400553,50.648389
129,Annunciation tower,architecture,Mari El Republic,Yoshkar-Ola,47.886178,56.631595
130,Grace Church of Evangelical Christians-Baptists,architecture,Krasnoyarsk region,Krasnoyarsk,Not found,
131,Nobility,architecture,Perm,Permian,56.229434,58.01045
132,Blinovskii passage,architecture,Nizhny Novgorod Region,Nizhny Novgorod,44.006516,56.326797
133,Blockade substation,architecture,St. Petersburg,St. Petersburg,30.315868,59.939095
134,Epiphany (winter) Cathedral,architecture,Yaroslavskaya oblast,Uglich,38.319372,57.526592
135,Battle Tower Beck Cheldieva,architecture,Republic of North Ossetia - Alania,Zgil,Not found,
136,Battle Tower Botsiev,architecture,Republic of North Ossetia - Alania,medicine,43.910711,42.671548
137,Battle Tower Gabisova in Halgone,architecture,Republic of North Ossetia - Alania,,Not found,
138,Battle Tower in the village Zubanchi,architecture,The Republic of Dagestan,,Not found,
139,Large living room series,architecture,The Republic of Buryatia,Ulan-Ude,107.584574,51.834464
140,Large living room series,architecture,The Republic of Buryatia,,110.71311,54.934805
141,Large flour series,architecture,Kostroma region,Kostroma,40.924792,57.767568
142,Big Gostiny Dvor,architecture,St. Petersburg,St. Petersburg,30.329514,59.929245
143,Big house on Foundry,architecture,St. Petersburg,St. Petersburg,30.315868,59.939095
144,Boris and Gleb Tower of Nizhny Novgorod Kremlin,architecture,Nizhny Novgorod Region,Nizhny Novgorod,Not found,
145,Botnia house,architecture,St. Petersburg,St. Petersburg,30.278606,59.958525
146,Brandenburg,architecture,Kaliningrad region,Ushakovo,20.235639,54.608973
147,Former Perm Theological Seminary,architecture,Perm,Permian,56.234914,58.009129
148,The former gymnasium,architecture,Bryansk region,Starodub,32.760346,52.585277
149,Former religious school,architecture,Perm,Permian,56.229434,58.01045
150,The former building of the Mutual Credit Bank,architecture,Transbaikal region,Сретенск,Not found,
151,The former building of the theater 501st construction,architecture,Yamalo-Nenets Autonomous Okrug,Salekhard,Not found,
152,Former farmstead Yugskoy Dorofeeva desert,architecture,Yaroslavskaya oblast,Rybinsk,Not found,
153,Former bath Kashinskaya,architecture,Perm,Permian,56.553313,61.23108
154,The former house of the Noble Assembly,architecture,Smolensk region,Smolensk,34.207091,55.489667
155,The former house of the Noble Assembly in Smolensk,architecture,Smolensk region,Smolensk,32.045251,54.782635
156,Engelhardt's former home in Smolensk,architecture,Smolensk region,Smolensk,Not found,
157,The former house of the governor of Smolensk,architecture,Smolensk region,Smolensk,32.082333,54.770842
158,The former house of the merchant Lanina,architecture,Smolensk region,Smolensk,34.207091,55.489667
159,A former trading house of Faberge,architecture,St. Petersburg,St. Petersburg,30.332424,59.928807
160,Bathing building of Nicholas II (Upper Bath),architecture,Stavropol region,Essentuki,Not found,
161,bath Ostrovsky,architecture,Stavropol region,Zheleznovodsk,43.136875,44.084718
162,Vvedenskyy castle,architecture,Republic of Crimea,Izobilnoye,34.352142,44.706694
163,widows Home,architecture,Nizhny Novgorod Region,Nizhny Novgorod,43.982909,56.31231
164,Verhnebazarny trade body,architecture,Nizhny Novgorod Region,Nizhny Novgorod,44.006516,56.326797
165,Windmill,architecture,Belgorod region,Menyaylovo,38.752899,50.528627
166,Windmill,architecture,Belgorod region,Demidovka,35.392104,50.947035
167,wine warehouse,architecture,Perm,Solikamsk,56.572573,59.755304
168,Vitebsk Station,architecture,St. Petersburg,,30.329181,59.919901
169,Vladimir square,architecture,St. Petersburg,St. Petersburg,30.34748,59.928257
170,Vlasievskaya tower,architecture,Pskov region,Pskov,28.332451,57.819274
171,Water tower,architecture,Komi Republic,Inta,60.115367,66.03682
172,Water tower,architecture,Krasnoyarsk region,Khanabadskiy,94.328297,55.813172
173,Water tower,architecture,Novosibirsk region,Novosibirsk,82.901278,54.983763
174,Water tower,architecture,Sverdlovsk region,Ekaterinburg,60.597465,56.838011
175,Water tower,architecture,Yaroslavskaya oblast,Rybinsk,38.858406,58.048454
176,Water tower in Staraya Russa,architecture,Novgorod region,Staraya Russa,31.355452,57.990715
177,Water tower in Vladimir,architecture,Vladimir region,,Not found,
178,Water tower with a chimney,architecture,Novosibirsk region,curse,Not found,
179,Water towers,architecture,Kurgan region,Mound,65.341118,55.441004
180,Water Mill,architecture,Kursk region,Krasnikov,36.402637,51.235774
181,Watermill in the village of Loch,architecture,Saratov region,goof,Not found,
182,Military sanatorium in Gurzuf,architecture,Republic of Crimea,,36.390456,45.225904
183,Station Orenburg,architecture,Orenburg region,Orenburg,55.074327,51.776581
184,Volga-Don channel,architecture,Volgograd region,,43.52943,48.62269
185,Volgograd Conservatory. PA Serebryakov,architecture,Volgograd region,Volgograd,44.335848,48.683577
186,Volgograd State Medical University,architecture,Volgograd region,Volgograd,44.543296,48.734296
187,Volgograd State Pedagogical University (main building),architecture,Volgograd region,Volgograd,44.543296,48.734296
188,Volgograd State Technical University,architecture,Volgograd region,Volgograd,44.543296,48.734296
189,Volgogradsky Technical College (hydromeliorative College),architecture,Volgograd region,Volgograd,44.543296,48.734296
190,Volgograd Regional Statistics Office (1st Mariinsky female grammar school),architecture,Volgograd region,Volgograd,Not found,
191,Volzhskaya HPP,architecture,Volgograd region,Volzhsky,44.780487,48.771558
192,Gateway to the Valley of the Kings,architecture,The Republic of Khakassia,the reeds,Not found,
193,Gate tower of the Gostiny Dvor,architecture,Novgorod region,Novgorod,Not found,
194,foundling-hospital,architecture,St. Petersburg,St. Petersburg,30.278606,59.958525
195,The second male gymnasium,architecture,Kirov region,Kirov,49.668014,58.603591
196,The second fire station in Blagoveshchensk,architecture,Amur region,Blagoveshchensk,127.527173,50.29064
197,Red Gate Building,architecture,Moscow,,Not found,
198,"Exhibition Complex ""Sestroretsky abroad""",architecture,St. Petersburg,St. Petersburg,30.315868,59.939095
199,Vyatskaya women's gymnasium,architecture,Kirov region,Kirov,49.747317,58.608011
200,Vyatka State Pedagogical University,architecture,Kirov region,Kirov,49.745916,58.641864
201,Vyatskoe zemskoe Realschule,architecture,Kirov region,Kirov,48.734871,58.057617
202,Gum,architecture,Primorsky Krai,Vladivostok,131.885485,43.115536
203,Galernaya Harbor,architecture,St. Petersburg,St. Petersburg,30.223961,59.93571
204,Gauptvahta,architecture,Kostroma region,Kostroma,40.926858,57.767961
205,St. George Tower of Nizhny Novgorod Kremlin,architecture,Nizhny Novgorod Region,Nizhny Novgorod,Not found,
206,St. George's Cathedral in Gus-Crystal,architecture,Vladimir region,,41.705563,55.660287
207,Gerdauen,architecture,Kaliningrad region,Railway,21.305308,54.360931
208,Gymnasium named AL Kekin,architecture,Yaroslavskaya oblast,Rostov,39.414526,57.185866
209,Gymnasium №2 them. VG Korolenko,architecture,Republic of Crimea,Kerch,36.467378,45.356219
210,School №32,architecture,Ivanovo region,Ivanovo,40.973921,57.000348
211,The main building of the Mariinsky Hospital,architecture,St. Petersburg,St. Petersburg,30.320818,59.922165
212,The main gate of the park Mon Repos,architecture,Leningrad region,Vyborg,28.72576,60.732374
213,Main House merchant Dementieva,architecture,Krasnoyarsk region,Pitorafik,Not found,
214,Main house Estate MI Sizova,architecture,Nizhny Novgorod Region,Nizhny Novgorod,Not found,
215,The main building of the Izhevsk arms factory,architecture,Udmurt republic,Izhevsk,Not found,
216,post office,architecture,Primorsky Krai,Vladivostok,131.885485,43.115536
217,post office,architecture,St. Petersburg,,30.315868,59.939095
218,post office,architecture,Sverdlovsk region,Ekaterinburg,60.597465,56.838011
219,post office,architecture,Volgograd region,Volgograd,44.516948,48.707067
220,Glebov house,architecture,St. Petersburg,St. Petersburg,30.278606,59.958525
221,Dutch house of Peter I,architecture,Moscow,,37.804979,55.736371
222,The mountain Institute,architecture,St. Petersburg,St. Petersburg,30.318545,59.916342
223,Chess City in Elista,architecture,Republic of Kalmykia,Elista,44.261638,46.307319
224,The policeman magistrate,architecture,Perm,Kungur,56.944206,57.42881
225,City fire station,architecture,Kirov region,Kirov,49.668014,58.603591
226,City Public Library,architecture,Yaroslavskaya oblast,Uglich,38.319372,57.526592
227,City telephone station,architecture,Amur region,Blagoveshchensk,127.527173,50.29064
228,City Government,architecture,Perm,Kungur,56.944206,57.42881
229,city ​​power,architecture,Amur region,Blagoveshchensk,127.527173,50.29064
230,City Nikolaev School,architecture,Tyumen region,Tyumen,69.420835,56.107122
231,City Women's College,architecture,Novosibirsk region,Novosibirsk,82.923619,55.012532
232,Urban apartment building,architecture,Novosibirsk region,Novosibirsk,82.958761,55.041787
233,"Гостиница &quot;Арктика&quot;, самое высокое в мире здание за Полярным кругом",architecture,Murmansk region,Murmansk,Not found,
234,"Hotel ""Bristol""",architecture,Voronezh region,Voronezh,39.200269,51.660781
235,"The hotel ""Versailles""",architecture,Primorsky Krai,Vladivostok,131.885485,43.115536
236,"Hotel ""Volgograd""",architecture,Volgograd region,Volgograd,44.516948,48.707067
237,"Hotel ""Imperial""",architecture,Republic of North Ossetia - Alania,Vladikavkaz,44.68196,43.02115
238,"Hotel ""Leningrad""",architecture,Moscow,,37.44497,55.881485
239,"Hotel ""Metropol""",architecture,Moscow,,37.56609,55.752825
240,"Hotel ""National""",architecture,Moscow,,37.56609,55.752825
241,"Hotel ""Ukraine""",architecture,Moscow,,Not found,
242,"Hotel ""Central""",architecture,Kirov region,Kirov,49.578524,58.637574
243,Hotel AE Lukyanov,architecture,Amur region,Blagoveshchensk,128.923622,51.639551
244,Hotel Central,architecture,Ivanovo region,Ivanovo,40.902442,57.004211
245,Hotel merchant VY Atamanova,architecture,Sverdlovsk region,Ekaterinburg,Not found,
246,Hotel Nikitin merchants,architecture,Nizhny Novgorod Region,Nizhny Novgorod,44.006516,56.326797
247,Living series,architecture,The Republic of Buryatia,Kyakhtinsky,106.449903,50.355214
248,Gostiny Dvor,architecture,Perm,Kungur,56.944206,57.42881
249,Gostiny Dvor,architecture,Arhangelsk region,Arkhangelsk,46.504372,61.61071
250,Gostiny Dvor,architecture,Tyumen region,Tyumen,65.554513,57.229939
251,Gostiny Dvor,architecture,Tyumen region,Tobolsk,68.253762,58.201698
252,Gostiny Dvor (red series),architecture,Kostroma region,Kostroma,46.655361,59.192647
253,Gostiny Dvor in Kaluga,architecture,Kaluga region,Kaluga,36.255268,54.568625
254,Urban complexes on the street Volgodonsk,architecture,Volgograd region,Volgograd,43.721652,48.635284
255,Count's quay,architecture,Sevastopol,,33.526941,44.616969
256,Gremyachaya tower,architecture,Pskov region,Pskov,28.349043,57.823386
257,Gross Vonsdorf,architecture,Kaliningrad region,spa,21.126902,54.465387
258,The Governor's House,architecture,Yaroslavskaya oblast,Yaroslavl,39.857944,57.640937
259,Zemstvo council,architecture,Perm,Permian,56.229434,58.01045
260,Provincial Treasury Chamber,architecture,Perm,Permian,55.272576,59.079399
261,provincial shelter,architecture,Perm,Permian,56.229434,58.01045
262,Gubstrahkassa,architecture,Ivanovo region,Ivanovo,40.973921,57.000348
263,"Palace ""Dulber""",architecture,Republic of Crimea,,33.993751,45.389194
264,Matrimonial Palace,architecture,Astrakhan region,Astrakhan,48.033574,46.347869
265,Matrimonial Palace,architecture,Tambov Region,Tambov,41.452274,52.721219
266,Wedding Palace on Furshtatskaya,architecture,St. Petersburg,St. Petersburg,30.297668,59.929263
267,The palace of the military governor,architecture,Nizhny Novgorod Region,Nizhny Novgorod,44.006516,56.326797
268,Palace of childhood and adolescence,architecture,Sevastopol,,Not found,
269,Palace of Arts,architecture,Ivanovo region,Ivanovo,40.986569,56.994474
270,"Palace of Culture ""Aviator""",architecture,Yaroslavskaya oblast,Rybinsk,38.858406,58.048454
271,Palace of Culture LVRZ,architecture,The Republic of Buryatia,Ulan-Ude,106.39507,52.172408
272,Palace of culture of railwaymen,architecture,Sverdlovsk region,Ekaterinburg,60.626122,56.852485
273,Palace of Culture named after M. Gorky,architecture,Novosibirsk region,Novosibirsk,82.920196,55.027144
274,Palace of Culture Communication Workers,architecture,St. Petersburg,St. Petersburg,30.380161,60.051163
275,Palace of Pioneers,architecture,Primorsky Krai,Vladivostok,Not found,
276,Palace of labor,architecture,Nizhny Novgorod Region,Nizhny Novgorod,43.872182,56.347504
277,Palace of labor,architecture,Novosibirsk region,Novosibirsk,82.869872,54.99476
278,The palace of the Emir of Bukhara,architecture,Stavropol region,Zheleznovodsk,43.030533,44.132058
279,The palace of the Emir of Bukhara in Yalta,architecture,Republic of Crimea,,Not found,
280,Palace Square,architecture,St. Petersburg,St. Petersburg,30.315311,59.938924
281,"The palace and park ensemble ""Gostilitsy""",architecture,Leningrad region,Gostilitsy,29.637658,59.725852
282,"The palace and park ensemble ""Ropsha""",architecture,Leningrad region,ROPS,29.862381,59.729409
283,"The palace and park complex ""The Priory""",architecture,Leningrad region,,30.123359,59.560091
284,Noble assembly,architecture,Orenburg region,Orenburg,55.096955,51.768199
285,Noble assembly,architecture,Kostroma region,Kostroma,40.926858,57.767961
286,Noble assembly,architecture,Tula region,Tula,37.617348,54.193122
287,A two-storey brick mansion,architecture,Novosibirsk region,Novosibirsk,82.952868,55.034425
288,Maiden bath,architecture,The Republic of Dagestan,Derbent,48.288776,42.057669
289,Business Building (Building Industrial Bank),architecture,Sverdlovsk region,Ekaterinburg,60.675322,56.833161
290,Demwtov restaurant,architecture,St. Petersburg,St. Petersburg,30.315868,59.939095
291,Denisova cave,architecture,Altai region,,83.020834,51.170746
292,Wooden manor tradesman G. Mashkov,architecture,Tyumen region,Tyumen,65.961387,57.136167
293,Wooden building in the Art Nouveau style,architecture,Novosibirsk region,Novosibirsk,82.92043,55.030199
294,Wooden architecture,architecture,Omsk region,Omsk,73.368212,54.989342
295,Wooden house fishing producer Tyumen tradesman Gorkushenko,architecture,Khanty-Mansi Autonomous Area,The October,Not found,
296,Wooden house,architecture,Tyumen region,Tyumen,65.523036,57.151969
297,Wooden Condo,architecture,Novosibirsk region,Novosibirsk,82.958761,55.041787
298,Toy railway,architecture,Novosibirsk region,,Not found,
299,Demetrius tower of Nizhny Novgorod Kremlin,architecture,Nizhny Novgorod Region,Nizhny Novgorod,Not found,
300,Demetrius Cathedral,architecture,Vladimir region,Vladimir,40.560884,55.907147
301,Dnieper gates gate Odigitrievsky church,architecture,Smolensk region,Smolensk,Not found,
302,Dovmont town,architecture,Pskov region,Pskov,28.332451,57.819274
303,House,architecture,Kurgan region,Mound,65.334893,55.430319
304,Дом &quot;Корабль&quot;,architecture,Ivanovo region,Ivanovo,Not found,
305,Дом &quot;Подкова&quot;,architecture,Ivanovo region,Ivanovo,Not found,
306,"House of ""Aeroflot""",architecture,Novosibirsk region,Novosibirsk,82.958761,55.041787
307,House AA Delvig,architecture,St. Petersburg,St. Petersburg,30.368285,59.927189
308,House AA Drozzhilova,architecture,Sverdlovsk region,Ekaterinburg,60.565342,56.845884
309,"House AG Morozov, 1905 (Museum A. Green)",architecture,Kirov region,Kirov,49.661079,58.560004
310,House Rubinstein,architecture,St. Petersburg,St. Petersburg,30.344363,59.929484
311,House AD Andreeva,architecture,Sverdlovsk region,Ekaterinburg,60.056635,56.750048
312,House AD Usanina,architecture,Sverdlovsk region,Ekaterinburg,60.056635,56.750048
313,House Titov,architecture,The Republic of Buryatia,Ulan-Ude,107.660823,51.869022
314,House AY Levitical,architecture,Kirov region,Kirov,49.594567,58.508738
315,AA house Zotov,architecture,Sverdlovsk region,Ekaterinburg,60.565342,56.845884
316,AA house Titova,architecture,Yaroslavskaya oblast,Rostov,Not found,
317,A. house Ekimov (Vasnetsov House),architecture,Kirov region,Kirov,49.594567,58.508738
318,I'm at home. Düringer,architecture,Ivanovo region,Ivanovo,40.940306,57.021672
319,house Balandin,architecture,Sverdlovsk region,Ekaterinburg,60.675322,56.833161
320,house Balahovit,architecture,Republic of North Ossetia - Alania,Galiat,43.847811,42.920194
321,house Baur,architecture,St. Petersburg,St. Petersburg,30.295683,59.920154
322,Home Bender,architecture,Saratov region,Saratov,46.076037,51.58032
323,Bilibin house in Kaluga,architecture,Kaluga region,Kaluga,36.267863,54.530567
324,house Bolkonski,architecture,Yaroslavskaya oblast,Yaroslavl,39.857944,57.640937
325,house Botkin,architecture,St. Petersburg,St. Petersburg,30.295683,59.920154
326,house Butyrina,architecture,Vologda Region,Vologda,39.88103,59.227647
327,House Belousov,architecture,Sverdlovsk region,Ekaterinburg,60.675322,56.833161
328,House VMBekhterev,architecture,St. Petersburg,St. Petersburg,30.553796,60.175857
329,VV house Nikitin,architecture,Novosibirsk region,Novosibirsk,82.972038,55.021664
330,VM house spondylitis,architecture,Kirov region,Kirov,49.689313,58.521682
331,VM house Lukin / Far Eastern District Medical Center,architecture,Amur region,Blagoveshchensk,Not found,
332,VS house Popova,architecture,Tyumen region,Tyumen,65.397784,57.272057
333,House VY Zhmakin,architecture,Kirov region,Kirov,49.594567,58.508738
334,house V.Ya.Safyanschikova,architecture,Pskov region,Pskov,Not found,
335,house Vahrameeva,architecture,Yaroslavskaya oblast,Yaroslavl,39.857944,57.640937
336,house Vitov,architecture,Ivanovo region,Ivanovo,40.973921,57.000348
337,house Vorobyova,architecture,Saratov region,Saratov,46.076037,51.58032
338,house Vorontsov,architecture,Republic of Crimea,Simferopol,34.103722,44.942247
339,second home,architecture,Irkutsk region,Irkutsk,104.357736,52.249324
340,house Galibina,architecture,St. Petersburg,St. Petersburg,30.295683,59.920154
341,house Garelina,architecture,Ivanovo region,Ivanovo,40.973921,57.000348
342,St George's House fraternity,architecture,Nizhny Novgorod Region,Nizhny Novgorod,43.982909,56.31231
343,House superiors mining plants,architecture,Sverdlovsk region,Ekaterinburg,60.675322,56.833161
344,house Gribushin,architecture,Perm,Permian,56.253967,58.006473
345,house Gubin,architecture,Lipetsk region,Lipetsk,39.59922,52.60882
346,house Guseva,architecture,Vologda Region,Vologda,39.88103,59.227647
347,House DM smith,architecture,Irkutsk region,Irkutsk,104.281047,52.287054
348,"House DF Babina, 1804 - 1806 years",architecture,Kirov region,Kirov,49.594567,58.508738
349,House of Nobility Assembly,architecture,Kaluga region,Kaluga,36.263784,54.506857
350,Demidov's house,architecture,Republic of Bashkortostan,Ufa,55.990581,54.720231
351,House Dmitry Sidorov,architecture,Voronezh region,Nižnedevick,38.361629,51.541097
352,house Dovlatova,architecture,Pskov region,Berezino,28.926588,57.042601
353,house Dyurshmidta,architecture,Nizhny Novgorod Region,Nizhny Novgorod,43.982909,56.31231
354,Home EK Kuklina,architecture,Novosibirsk region,Novosibirsk,82.958761,55.041787
355,"House EP Naryshkina, wives of the Decembrists MM Naryshkin",architecture,Transbaikal region,Chita,114.029537,51.808188
356,Home EG Ikonnikovoy,architecture,Novosibirsk region,Novosibirsk,82.92043,55.030199
357,House EY riding,architecture,Novosibirsk region,Novosibirsk,82.958761,55.041787
358,Europa house,architecture,Irkutsk region,Irkutsk,104.357736,52.249324
359,house Zheleznova,architecture,Sverdlovsk region,Ekaterinburg,60.675322,56.833161
360,house Zasetskaya,architecture,Vologda Region,Vologda,39.88103,59.227647
361,house Zverkov,architecture,St. Petersburg,St. Petersburg,30.295683,59.920154
362,Zinger house,architecture,St. Petersburg,St. Petersburg,30.295683,59.920154
363,House Zinkovetskogo (Officers' House),architecture,Republic of Adygea,Maikop,40.098548,44.608865
364,House I. Merkuleva,architecture,Astrakhan region,Astrakhan,47.993761,46.312972
365,House IP Shuvalov - MA Heinze,architecture,Nizhny Novgorod Region,Nizhny Novgorod,Not found,
366,"House I. Repin, 1815",architecture,Kirov region,Kirov,49.719343,58.49252
367,House I. Sayapina,architecture,Amur region,Blagoveshchensk,128.13341,51.689398
368,IV house Malyshev,architecture,Kostroma region,Kostroma,40.898894,57.733973
369,House IG Vedernikov,architecture,Novosibirsk region,Novosibirsk,82.92043,55.030199
370,House II Menshikov,architecture,The Republic of Buryatia,Ulan-Ude,107.660823,51.869022
371,House II Feinberg,architecture,Irkutsk region,Irkutsk,104.357736,52.249324
372,Home ip Voynova,architecture,Tyumen region,Tyumen,65.580268,57.169565
373,IF House Stikhin,architecture,Novosibirsk region,Novosibirsk,82.932943,55.021075
374,House Ivan Polyashova,architecture,Kostroma region,Pogorelovo,43.130668,58.825872
375,House Ivan Steingel,architecture,Republic of North Ossetia - Alania,Vladikavkaz,44.68196,43.02115
376,house Ignatiev,architecture,Tyumen region,Tyumen,65.397784,57.272057
377,House K Firstova,architecture,Kirov region,Kirov,49.594567,58.508738
378,House KP Buzolin,architecture,Novosibirsk region,Novosibirsk,82.958761,55.041787
379,house Kamenskih,architecture,Nizhny Novgorod Region,Nizhny Novgorod,43.982909,56.31231
380,House Baia-Karim (center of Tatar culture),architecture,Tomsk region,Tomsk,85.050946,56.469513
381,house Kligman,architecture,Voronezh region,Voronezh,39.164247,51.701105
382,house Kolmogorovs,architecture,Tyumen region,Tyumen,65.397784,57.272057
383,house Kornilov,architecture,Tyumen region,Tobolsk,68.232993,58.195698
384,house Kostromina,architecture,Nizhny Novgorod Region,Nizhny Novgorod,43.982909,56.31231
385,House Kuchina / house Klinkstrem,architecture,St. Petersburg,St. Petersburg,30.295683,59.920154
386,house Kyuzelya,architecture,St. Petersburg,St. Petersburg,30.295683,59.920154
387,LI house Rodionova,architecture,Amur region,Blagoveshchensk,128.13341,51.689398
388,house Laval,architecture,St. Petersburg,St. Petersburg,30.295683,59.920154
389,house Laval,architecture,St. Petersburg,St. Petersburg,30.295683,59.920154
390,Dom Левашова,architecture,Vologda Region,Vologda,39.88103,59.227647
391,house Lesniewski,architecture,Altai region,Barnaul,83.774503,53.362495
392,House Lobanov-Rostovsky,architecture,St. Petersburg,St. Petersburg,30.295683,59.920154
393,house Loktev,architecture,Moscow region,Zaraysk,38.874845,54.756973
394,house Lukin,architecture,Transbaikal region,Chita,118.645746,52.459782
395,House MN Zamyatnin,architecture,Voronezh region,Voronezh,39.164247,51.701105
396,Mamalova trapped Coxe,architecture,The Republic of Dagestan,Aul Çox,Not found,
397,Marian House Sazonov,architecture,Kostroma region,Ostašovo,43.080398,58.688099
398,Melnikov house,architecture,Moscow,,37.671301,55.725929
399,house Meshkov,architecture,Perm,Permian,56.253967,58.006473
400,Home Michael,architecture,Sevastopol,Juniperus excelsa Balaklava,33.599857,44.501214
401,trapped Moʙerga,architecture,The Republic of Karelia,Kalevala,31.184413,65.197743
402,house Muruzi,architecture,St. Petersburg,St. Petersburg,30.295683,59.920154
403,NI house Klabukova,architecture,Kirov region,Kirov,49.594567,58.508738
404,Naxiʙaşeva trapped Coxe,architecture,The Republic of Dagestan,Aul Çox,Not found,
405,Nicholas House Basin,architecture,St. Petersburg,St. Petersburg,30.466507,59.865072
406,Home Nosovycha,architecture,Altai region,Barnaul,83.774503,53.362495
407,House Orlova-Davydova,architecture,St. Petersburg,St. Petersburg,30.295683,59.920154
408,Home P. E. Borisova,architecture,Kurgan region,Mound,65.334893,55.430319
409,Home PI Podarueva,architecture,Tyumen region,Tyumen,65.397784,57.272057
410,House PG Arshaulova,architecture,Kirov region,Kirov,49.668014,58.603591
411,PD House Dolishte,architecture,Pskov region,Pskov,28.332451,57.819274
412,House PI Dempsey,architecture,Republic of Bashkortostan,Ufa,55.990581,54.720231
413,House PI Tchaikovsky,architecture,St. Petersburg,St. Petersburg,30.35278,59.94654
414,Pavlov's House,architecture,Volgograd region,,43.510799,48.655732
415,Memory house,architecture,Orenburg region,Orenburg,55.096955,51.768199
416,house Panyov,architecture,Vologda Region,Vologda,39.88103,59.227647
417,Pashkov house,architecture,Moscow,,37.637874,55.770218
418,house Perepilihi,architecture,Arhangelsk region,Uemsky,40.862476,64.475911
419,house Pereslavtseva,architecture,Yaroslavskaya oblast,Uglich,38.319372,57.526592
420,House Pakleŭski-Kozell,architecture,Sverdlovsk region,Ekaterinburg,60.675322,56.833161
421,dom Popova,architecture,Yaroslavskaya oblast,Rybinsk,38.902415,58.031132
422,house Pryanichnikova,architecture,St. Petersburg,St. Petersburg,30.295683,59.920154
423,House Paunch-Puzyrevskii,architecture,Vologda Region,Vologda,39.88103,59.227647
424,Raskolnikov house,architecture,St. Petersburg,St. Petersburg,30.295683,59.920154
425,House of Russian Literary Society,architecture,St. Petersburg,St. Petersburg,30.295683,59.920154
426,SA house Pendzinskogo,architecture,Amur region,Blagoveshchensk,128.13341,51.689398
427,house S.A.Shillinga,architecture,Transbaikal region,Chita,118.645746,52.459782
428,"Savintseva House (House, where princes Romanovs lived)",architecture,Kirov region,Kirov,49.594567,58.508738
429,house Saltykov,architecture,St. Petersburg,St. Petersburg,30.367395,59.943368
430,Home Svaroh,architecture,Voronezh region,,40.233395,50.970898
431,home Sveshnikova,architecture,Vologda Region,Vologda,39.88103,59.227647
432,house Sevastyanov,architecture,Sverdlovsk region,Ekaterinburg,60.675322,56.833161
433,house Sedova,architecture,Yaroslavskaya oblast,Rybinsk,38.858406,58.048454
434,House Sergei Dovlatov,architecture,St. Petersburg,St. Petersburg,30.34015,59.925421
435,house Sinakevicha,architecture,Perm,Permian,56.253967,58.006473
436,Home Sirotkina,architecture,Nizhny Novgorod Region,Nizhny Novgorod,43.982909,56.31231
437,house Sitnikov,architecture,Vologda Region,Vologda,39.88103,59.227647
438,house Smyshlyaeva,architecture,Perm,Permian,56.26463,57.989341
439,House of Soviets,architecture,Kirov region,Kirov,49.594567,58.508738
440,House of Soviets,architecture,Nizhny Novgorod Region,Nizhny Novgorod,43.989395,56.279337
441,House Sophia Perovskoy,architecture,Pskov region,Pskov,28.359751,57.818047
442,House of Unions (Noble Collection),architecture,Moscow,,37.637874,55.770218
443,House TG Shevchenko,architecture,St. Petersburg,St. Petersburg,30.242898,59.936837
444,house Tverdova,architecture,Nizhny Novgorod Region,Arzamas,43.815687,55.386666
445,house Telegin,architecture,Sverdlovsk region,Ekaterinburg,60.675322,56.833161
446,dom Thompson,architecture,Yaroslavskaya oblast,Myshkin,38.454587,57.786654
447,house Tonkonogovyh,architecture,Krasnoyarsk region,Pitorafik,92.173769,58.453069
448,house Trezzini,architecture,St. Petersburg,St. Petersburg,30.288101,59.936562
449,house Tupitsyn,architecture,Perm,Permian,56.253967,58.006473
450,House UO Petelina,architecture,Sverdlovsk region,Ekaterinburg,61.030139,59.481254
451,home Haritonenko,architecture,Belgorod region,Red Yaruga,35.658041,50.800972
452,house Shilya,architecture,St. Petersburg,St. Petersburg,30.295683,59.920154
453,house Shuvalov,architecture,Perm,Lysva,57.807244,58.058326
454,House EG Skribanovich,architecture,Amur region,Blagoveshchensk,127.527173,50.29064
455,house Yakunchikova,architecture,St. Petersburg,St. Petersburg,30.295683,59.920154
456,house actor,architecture,Moscow,,37.637874,55.770218
457,house actor,architecture,Sverdlovsk region,Ekaterinburg,60.675322,56.833161
458,House of the English congregation,architecture,St. Petersburg,St. Petersburg,30.295683,59.920154
459,House pharmacist Ulrich,architecture,Lipetsk region,zadonsk,38.919456,52.391972
460,architect house,architecture,Altai region,Barnaul,83.774503,53.362495
461,House architect (Daum Rysin),architecture,Volgograd region,Volgograd,44.483639,48.684565
462,House architect FE Ponomareva,architecture,Transbaikal region,Chita,118.645746,52.459782
463,House Ataman FY Bursak,architecture,Krasnodar region,Krasnodar,38.935473,45.131536
464,House Brothers Stoletovs,architecture,Vladimir region,Vladimir,40.413121,56.133076
465,House in Potapov,architecture,Moscow,,37.678343,55.788368
466,House Deputy Governor,architecture,Nizhny Novgorod Region,Nizhny Novgorod,43.982909,56.31231
467,house magistrates,architecture,Perm,Solikamsk,56.771029,59.648333
468,house magistrates,architecture,Krasnoyarsk region,Pitorafik,92.173769,58.453069
469,House of the military governor of the Amur region,architecture,Amur region,Blagoveshchensk,128.13341,51.689398
470,House Volga Shipping,architecture,Yaroslavskaya oblast,Myshkin,38.454587,57.786654
471,House doctor SV Martynov,architecture,Voronezh region,Voronezh,39.164247,51.701105
472,House vyat governors,architecture,Kirov region,Kirov,49.594567,58.508738
473,House mountain chief,architecture,The Republic of Karelia,Petrozavodsk,34.33591,61.806405
474,Home city architect KP Chakin,architecture,Tyumen region,Tyumen,65.397784,57.272057
475,House Mayor F. In Shvetova,architecture,Kurgan region,Mound,65.341118,55.441004
476,house the mayor,architecture,Tyumen region,Tyumen,65.397784,57.272057
477,House City Hospital,architecture,Yaroslavskaya oblast,,Not found,
478,house movers,architecture,Volgograd region,Volgograd,44.483639,48.684565
479,governor's house,architecture,Primorsky Krai,Vladivostok,131.885485,43.115536
480,governor's house,architecture,Republic of Bashkortostan,Ufa,55.990581,54.720231
481,House noblewoman Voitkevich,architecture,Nizhny Novgorod Region,Nizhny Novgorod,43.982909,56.31231
482,House of Nobility Assembly,architecture,Nizhny Novgorod Region,Nizhny Novgorod,43.982909,56.31231
483,House Decembrist Rosen,architecture,Kurgan region,Mound,65.334893,55.430319
484,House for bank employees,architecture,Novosibirsk region,Novosibirsk,82.917546,54.99243
485,house railway workers,architecture,Nizhny Novgorod Region,Nizhny Novgorod,43.989395,56.279337
486,The house is habitable,architecture,Tyumen region,Tyumen,65.523036,57.151969
487,The house is habitable Philistine AI Vasilkova,architecture,Tyumen region,,68.096045,57.541821
488,Residential house with shops merchant JA Nemchinov,architecture,The Republic of Buryatia,Ulan-Ude,Not found,
489,Home and Hospital Dr. IA Syano,architecture,Sverdlovsk region,Ekaterinburg,60.597465,56.838011
490,The house from the manor NI Davydov,architecture,Tyumen region,Tyumen,65.534328,57.153033
491,Engineer House Ostaptsa,architecture,Kurgan region,Mound,65.334893,55.430319
492,Engineer House Pertsov,architecture,Moscow,,37.577427,55.769747
493,Treasury house,architecture,Yaroslavskaya oblast,Myshkin,38.454587,57.786654
494,House of Princess Gagarina,architecture,St. Petersburg,St. Petersburg,30.295683,59.920154
495,Дом компании &quot;Схефальс и Эсдерс&quot;,architecture,St. Petersburg,St. Petersburg,Not found,
496,house of Composers,architecture,Novosibirsk region,Novosibirsk,82.958761,55.041787
497,house konservschikov,architecture,Volgograd region,Volgograd,44.483639,48.684565
498,House peasant AY Kapitanova,architecture,Tyumen region,Tyumen,65.397784,57.272057
499,priest house,architecture,Pskov region,Pskov,28.332451,57.819274
500,Kirillov's house,architecture,Sverdlovsk region,Kunar,Not found,
501,House of Culture of the October Revolution,architecture,Novosibirsk region,Novosibirsk,82.909659,55.026432
502,House Merchant Assembly,architecture,Kaluga region,Kaluga,36.263784,54.506857
503,House of the Holy Spirit merchant guild,architecture,Leningrad region,Vyborg,29.486516,60.420888
504,House Merchant AD Rychin,architecture,Nizhny Novgorod Region,Nizhny Novgorod,43.982909,56.31231
505,House Merchant AMLushnikov,architecture,The Republic of Buryatia,Kyakhtinsky,106.449903,50.355214
506,House of merchant A. Lebedev,architecture,Sverdlovsk region,Ekaterinburg,60.675322,56.833161
507,House Merchant AK Posnova,architecture,Yaroslavskaya oblast,Uglich,Not found,
508,House Merchant Alekseeva,architecture,Volgograd region,Volgograd,44.404147,48.574612
509,House Merchant Borodkin,architecture,Krasnoyarsk region,Pitorafik,92.173769,58.453069
510,House Merchant VI Smirnova,architecture,Nizhny Novgorod Region,Nizhny Novgorod,43.841289,56.234105
511,House Merchant Vekruta,architecture,Leningrad region,Vyborg,29.486516,60.420888
512,House Merchant GR Beilin,architecture,Novosibirsk region,Novosibirsk,82.958761,55.041787
513,House Merchant GP Larina,architecture,Amur region,Blagoveshchensk,127.599587,50.366046
514,"House Merchant Dontsova (Trust ""Nizhnevolgoelektromontazh"" housing)",architecture,Volgograd region,Volgograd,44.483639,48.684565
515,House Merchant ZG Kryukov,architecture,Novosibirsk region,Novosibirsk,82.958761,55.041787
516,House of merchant IG Pshenichnikova,architecture,Sverdlovsk region,Ekaterinburg,60.675322,56.833161
517,House of merchant I. Efremova,architecture,Novosibirsk region,Novosibirsk,82.958761,55.041787
518,House of a merchant IY Andreeva,architecture,Kurgan region,Mound,65.334893,55.430319
519,House of merchant IT Surikov (women's gymnasium PA Smirnov),architecture,Novosibirsk region,Novosibirsk,82.981919,55.053196
520,House Merchant Ishchenko,architecture,Volgograd region,Volgograd,44.483639,48.684565
521,House Merchant Kytmanov,architecture,Krasnoyarsk region,Pitorafik,92.15441,58.439982
522,House of merchant MK Kurbatov,architecture,The Republic of Buryatia,Ulan-Ude,107.660823,51.869022
523,Home buyer N. Mr. Babikova,architecture,Sverdlovsk region,Ekaterinburg,60.675322,56.833161
524,House Merchant NL Kapelmana,architecture,The Republic of Buryatia,Ulan-Ude,107.660823,51.869022
525,House Merchant Orlikova,architecture,Transbaikal region,Сретенск,118.645746,52.459782
526,Kwpca house fire,architecture,St. Petersburg,St. Petersburg,30.295683,59.920154
527,House Merchant PT Truneva,architecture,The Republic of Buryatia,Ulan-Ude,107.660823,51.869022
528,House Merchant Pavlov (House of Books) in Smolensk,architecture,Smolensk region,Smolensk,32.014088,54.773496
529,House Merchant Polyakova,architecture,Altai region,Barnaul,83.774503,53.362495
530,House Merchant Pyatov at Christmas,architecture,Nizhny Novgorod Region,Nizhny Novgorod,43.982909,56.31231
531,Home buyer Rakova,architecture,Kaluga region,Kaluga,36.263784,54.506857
532,House of the merchant Selivanov,architecture,Belgorod region,Belgorod,36.587223,50.59566
533,House Merchant Serebryannikova,architecture,Oryol Region,Eagle,36.063837,52.970371
534,House Merchant Slivchanskogo,architecture,St. Petersburg,St. Petersburg,30.295683,59.920154
535,House Merchant Spirin (center of traditional folk culture Nikolskoye),architecture,Vologda Region,Nikolsky,45.471642,59.527546
536,House of merchant Sukhanov,architecture,Komi Republic,Syktyvkar,50.836399,61.668793
537,House Merchant Sychev,architecture,Altai region,,83.783378,53.317682
538,Home buyer Telegina,architecture,Sverdlovsk region,Ekaterinburg,60.675322,56.833161
539,Home buyer Terenina,architecture,Kaluga region,Kaluga,36.263784,54.506857
540,House Merchant FM Ryazantseva,architecture,Kirov region,Kirov,49.668014,58.603591
541,House Merchant Chernukhina,architecture,Samara Region,Sizran,48.474485,53.155782
542,House Merchant Chesnokov,architecture,Nizhny Novgorod Region,Nizhny Novgorod,43.982909,56.31231
543,House Merchant Edelstein,architecture,Transbaikal region,Сретенск,118.645746,52.459782
544,House Merchant YA Istomin,architecture,Novosibirsk region,Novosibirsk,82.958761,55.041787
545,House merchants Agafurovyh,architecture,Sverdlovsk region,Ekaterinburg,60.586174,56.838568
546,House merchants Evreinov,architecture,Yaroslavskaya oblast,Uglich,38.319372,57.526592
547,House merchants Izhbolinyh,architecture,Sverdlovsk region,Ekaterinburg,60.586174,56.838568
548,House of merchant Kazantsev,architecture,Sverdlovsk region,Irbit,63.057664,57.683819
549,House merchants Kekin,architecture,Yaroslavskaya oblast,Rostov,39.414526,57.185866
550,House merchants Loshkareva,architecture,Nizhny Novgorod Region,Nizhny Novgorod,43.982909,56.31231
551,House merchants Pyankova,architecture,Arhangelsk region,Solvychegodsk,46.928089,61.330589
552,House merchants Stolbovaya,architecture,Yaroslavskaya oblast,Myshkin,38.454587,57.786654
553,House merchants Shadrin,architecture,Altai region,Barnaul,83.774503,53.362495
554,House merchants Shumov,architecture,Transbaikal region,Chita,118.645746,52.459782
555,House Yakovlev and merchants Polyakova,architecture,Altai region,Barnaul,83.774503,53.362495
556,House of merchant T. Borisova,architecture,The Republic of Buryatia,Ulan-Ude,107.660823,51.869022
557,House tradesman DM Paholkova,architecture,The Republic of Buryatia,Ulan-Ude,107.660823,51.869022
558,House tradesman IP Nechaeva,architecture,Tyumen region,Tyumen,65.397784,57.272057
559,House tradesman M. Rosenfeld,architecture,Novosibirsk region,Novosibirsk,82.92043,55.030199
560,House tradesman MA Rubtsov,architecture,Novosibirsk region,Novosibirsk,82.958761,55.041787
561,House tradesman NV Lazarev,architecture,Sverdlovsk region,Ekaterinburg,60.675322,56.833161
562,House on the waterfront Tinkers,architecture,Moscow,,37.637874,55.770218
563,House on the Embankment,architecture,Moscow,,37.637874,55.770218
564,"House on Chekhov Street, 7",architecture,St. Petersburg,St. Petersburg,30.353202,59.937265
565,House of the chief of the Altai Mining District,architecture,Altai region,Barnaul,83.774503,53.362495
566,Defense house,architecture,Sverdlovsk region,Ekaterinburg,60.628421,56.823129
567,House Society clerks,architecture,Novosibirsk region,Novosibirsk,82.958761,55.041787
568,House public meeting,architecture,Perm,Solikamsk,56.771029,59.648333
569,house officers,architecture,Irkutsk region,Irkutsk,104.357736,52.249324
570,House of officers of the Volgograd garrison,architecture,Volgograd region,Volgograd,44.483639,48.684565
571,printing house,architecture,Sverdlovsk region,Ekaterinburg,60.675322,56.833161
572,printing house,architecture,Volgograd region,Volgograd,44.483639,48.684565
573,House of Writers in Lavrushinsky Lane,architecture,Moscow,,Not found,
574,House under the line,architecture,Novosibirsk region,Novosibirsk,82.92043,55.030199
575,House under the steeple,architecture,Altai region,Barnaul,83.776856,53.346785
576,House building contractor Smirnov,architecture,Yaroslavskaya oblast,Myshkin,38.454587,57.786654
577,House of landlord Korobkov,architecture,Belgorod region,,Not found,
578,House post office,architecture,Kirov region,Kirov,49.594567,58.508738
579,Law courts,architecture,Altai region,Barnaul,83.774503,53.362495
580,House of the clergy of St. Nicholas Church,architecture,Nizhny Novgorod Region,Nizhny Novgorod,43.982909,56.31231
581,House with a tower and spire,architecture,Magadan Region,Magadan,Not found,
582,House with dragons,architecture,Tomsk region,Tomsk,85.050946,56.469513
583,House with a store Hnyunina and Konovalov,architecture,Krasnoyarsk region,Pitorafik,92.173769,58.453069
584,House Clock,architecture,Novosibirsk region,Novosibirsk,82.958761,55.041787
585,House with a clock and steeple,architecture,Magadan Region,Magadan,Not found,
586,Post House (main post office),architecture,Kirov region,Kirov,49.594567,58.508738
587,House Secretary-Vyatka Provincial Office of AI Perminov,architecture,Kirov region,Kirov,49.668014,58.603591
588,"House with the Lions, or hotel Shvanvich",architecture,Voronezh region,Voronezh,39.200269,51.660781
589,House with beasts,architecture,Moscow,,37.637874,55.770218
590,The House with Lions,architecture,Perm,Permian,56.253967,58.006473
591,The House with Lions,architecture,Smolensk region,Smolensk,34.207091,55.489667
592,Home cathedral clergy,architecture,Yaroslavskaya oblast,Rybinsk,38.858406,58.048454
593,House solepromyshlennika Dubrovin,architecture,Perm,Solikamsk,56.771029,59.648333
594,"Home insurance company ""Russia""",architecture,Moscow,,37.637874,55.770218
595,House titular counselor EZ Alexeeva,architecture,Nizhny Novgorod Region,Nizhny Novgorod,44.006516,56.326797
596,House photographer Kochesheva,architecture,Kurgan region,Mound,65.334893,55.430319
597,artists' house,architecture,Yaroslavskaya oblast,Rybinsk,38.858406,58.048454
598,House where he lived L. N. Steel,architecture,Kirov region,Kirov,49.594567,58.508738
599,Dom-garmoška,architecture,Voronezh region,Voronezh,39.200269,51.660781
600,House-Museum VI Kalashnikov,architecture,Yaroslavskaya oblast,Uglich,38.34581,57.53354
601,Home Museum PP Bazhova,architecture,Sverdlovsk region,Ekaterinburg,60.597465,56.838011
602,House-monument to IA Goncharov,architecture,Ulyanovsk region,Ulyanovsk,48.318484,54.301117
603,Bird House,architecture,Ivanovo region,Ivanovo,40.973921,57.000348
604,House Estate AM Ustinov,architecture,Penza region,hornbeam,45.063312,53.377269
605,House Estate Bakhmetev-Obolensky,architecture,Penza region,Nikolsky,46.084356,53.71447
606,House Estate second guild merchant VY Atamanova),architecture,Sverdlovsk region,Ekaterinburg,60.597465,56.838011
607,House A.M. Rifmana,architecture,Amur region,Blagoveshchensk,127.527173,50.29064
608,VI homes Shemyaka,architecture,Kursk region,Gorno,34.661801,51.574168
609,house Korobkov,architecture,Sverdlovsk region,Ekaterinburg,60.597465,56.838011
610,Houses merchants AD Smolin and TE Kolesnikov,architecture,Kurgan region,,Not found,
611,Houses merchants Shelikhov,architecture,Kursk region,Gorno,34.681043,51.571263
612,GS manor house Koloshin,architecture,Kirov region,Kirov,49.668014,58.603591
613,"Дома, раскрашенные под &quot;Дымку&quot;",architecture,Kirov region,Kirov,49.745664,58.417482
614,Apartment houses Meshchansky society,architecture,St. Petersburg,St. Petersburg,30.350678,59.937535
615,Apartment houses Tretyakova,architecture,Kostroma region,Kostroma,40.940036,57.781572
616,Profitable home Chelisheva,architecture,Samara Region,Samara,50.198406,53.36437
617,Apartment house,architecture,Novosibirsk region,Novosibirsk,82.958761,55.041787
618,"Apartment house (former hotel ""Russia"")",architecture,Pskov region,Pskov,28.332451,57.819274
619,Apartment house Dolishte,architecture,Pskov region,Pskov,28.332451,57.819274
620,Apartment house GV Uvarova,architecture,Sverdlovsk region,Ekaterinburg,60.675322,56.833161
621,Apartment house EA Khrebtovaya,architecture,Sverdlovsk region,Ekaterinburg,60.675322,56.833161
622,Apartment house Eliseev,architecture,St. Petersburg,St. Petersburg,30.295683,59.920154
623,Apartment house Eliseev on Vasilevsky Island,architecture,St. Petersburg,St. Petersburg,30.315868,59.939095
624,Apartment house Zaitseva,architecture,St. Petersburg,St. Petersburg,30.295683,59.920154
625,"Apartment house Commercial School, home of KA Varlamov",architecture,St. Petersburg,St. Petersburg,Not found,
626,Apartment house M. Likhachev,architecture,Novosibirsk region,Novosibirsk,82.958761,55.041787
627,Apartment house M.A.Berguta,architecture,Transbaikal region,Chita,118.645746,52.459782
628,MV Profitable House Falcon,architecture,Moscow,,37.514787,55.805042
629,Apartment house MN Miansarova,architecture,Moscow,,37.637874,55.770218
630,Apartment house MN Pyatkova,architecture,Novosibirsk region,Novosibirsk,82.958761,55.041787
631,Profitable House of Moscow Merchant Society,architecture,Moscow,,Not found,
632,Apartment house NA Bugrov,architecture,Nizhny Novgorod Region,Nizhny Novgorod,43.982909,56.31231
633,Apartment house Stepanova,architecture,St. Petersburg,St. Petersburg,30.295683,59.920154
634,Apartment house Tretyakov,architecture,Moscow,,37.637874,55.770218
635,Apartment house Frolov brothers,architecture,Nizhny Novgorod Region,Nizhny Novgorod,43.989395,56.279337
636,Apartment house Princess Urusova,architecture,St. Petersburg,St. Petersburg,30.295683,59.920154
637,Profitable House of Prince Gagarin AG,architecture,Moscow,,37.582664,55.708587
638,Apartment house of a merchant E. E.Emel'janova,architecture,Sverdlovsk region,Ekaterinburg,60.597465,56.838011
639,Apartment house of a merchant EE Paltseva,architecture,Nizhny Novgorod Region,Nizhny Novgorod,44.006516,56.326797
640,Apartment house of a merchant Eliseev,architecture,St. Petersburg,St. Petersburg,30.295683,59.920154
641,Apartment house of a merchant Chuvildina,architecture,Sverdlovsk region,Ekaterinburg,60.675322,56.833161
642,Apartment house tradesman AF Vykhodtsev,architecture,Novosibirsk region,Novosibirsk,82.92043,55.030199
643,"Apartment house on the street Chaplygin, 45",architecture,Novosibirsk region,Novosibirsk,82.916136,55.025797
644,Доходный дом страхового общества &quot;Саламандра&quot;,architecture,St. Petersburg,St. Petersburg,Not found,
645,religious school,architecture,Perm,Solikamsk,56.771029,59.648333
646,religious school,architecture,Kostroma region,Kostroma,40.926858,57.767961
647,Dymkovo settlement,architecture,Vologda Region,great Ustyug,46.29784,60.761156
648,Elets chimes,architecture,Lipetsk region,Dace,38.485525,52.584205
649,Elizabethan academic Gallery,architecture,Stavropol region,Pyatigorsk,43.07084,44.03929
650,Elizabethan Handmade School,architecture,Perm,Kungur,56.944206,57.42881
651,Elizabethan gate,architecture,Orenburg region,Orenburg,55.096955,51.768199
652,Yeliseyev Grocery store,architecture,Moscow,,37.617635,55.755814
653,Railway station Sarepta,architecture,Volgograd region,Volgograd,44.51181,48.519512
654,Train Station,architecture,Amur region,Blagoveshchensk,127.527173,50.29064
655,Train Station,architecture,Irkutsk region,,106.363305,57.100294
656,The railway station of the XIX century in the village of Wärtsilä,architecture,The Republic of Karelia,Vyartsilya,30.644301,62.167147
657,"Railway station ""Vyatka""",architecture,Kirov region,Kirov,49.567142,58.628421
658,Railway station in Veliky Novgorod,architecture,Novgorod region,Novgorod,31.269915,58.52281
659,The railway station in Vladivostok,architecture,Primorsky Krai,Vladivostok,131.885485,43.115536
660,Volgograd-I train station,architecture,Volgograd region,Volgograd,44.511621,48.712679
661,Railway station in Yoshkar-Ola,architecture,Mari El Republic,,48.197858,56.485739
662,Nizhny Novgorod Train Station,architecture,Nizhny Novgorod Region,,44.279559,56.595648
663,Train station Orsk,architecture,Orenburg region,Orsk,58.475196,51.229362
664,Train station Chita-2,architecture,Transbaikal region,Chita,113.49468,52.028045
665,Railway station in Gagarin,architecture,Smolensk region,Gagarin,34.996845,55.553299
666,Railway station in Petrozavodsk,architecture,The Republic of Karelia,Petrozavodsk,34.346878,61.785017
667,Railway station in Smolensk,architecture,Smolensk region,Smolensk region,Not found,
668,Railway station in Chudovo,architecture,Novgorod region,Perfectly,31.679358,59.122705
669,Railway station in the city of Yelets,architecture,Lipetsk region,Dace,38.503653,52.62419
670,The railway station of the city of Astrakhan,architecture,Astrakhan region,Astrakhan,48.033574,46.347869
671,Ivanovo Train Station neighborhood,architecture,Ivanovo region,Ivanovo,40.973921,57.000348
672,Slyudyanka Railway Station.,architecture,Irkutsk region,Slyudyanka,103.724046,51.658568
673,Women's High School,architecture,Perm,Solikamsk,56.771029,59.648333
674,Women's High School,architecture,Tyumen region,Tyumen,65.534328,57.153033
675,Female seminary,architecture,Yaroslavskaya oblast,Yaroslavl,39.893804,57.626559
676,Female diocesan school,architecture,Kostroma region,Kostroma,40.926858,57.767961
677,Residential wooden house,architecture,Novosibirsk region,Novosibirsk,82.92043,55.030199
678,House,architecture,Tyumen region,Tyumen,65.523036,57.151969
679,House,architecture,Tyumen region,Tyumen,65.523036,57.151969
680,Residential building PM Florina,architecture,Sverdlovsk region,Ekaterinburg,60.056635,56.750048
681,Residential house TM Grupilon,architecture,Perm,Permian,56.300859,58.003503
682,Residential building Serebryakov brothers,architecture,Volgograd region,Volgograd,44.471305,48.733886
683,Residential house of merchant VF Plyusnina,architecture,Khabarovsk region,Khabarovsk,135.071917,48.480223
684,Residential house of merchant GM Smetanin,architecture,Novgorod region,Demyansk,Not found,
685,Residential building merchants Kolobovnikovyh,architecture,Transbaikal region,Nerçinsk,Not found,
686,Residential building early XX century,architecture,Altai region,Barnaul,83.774503,53.362495
687,Residential building on Sovetskaya,architecture,Novosibirsk region,Suzuki,82.32791,53.787183
688,"Residential complex ""The second house of the City Council""",architecture,Sverdlovsk region,Ekaterinburg,60.597465,56.838011
689,Residential house (Computing Center),architecture,Volgograd region,Volgograd,44.493143,48.750082
690,Residential house Vakhrusheva,architecture,Kirov region,Vaxruşi,50.026406,58.684657
691,Dwelling houses of merchants Shmulevskih,architecture,Transbaikal region,Nerçinsk,Not found,
692,Zaalaw,architecture,Kaliningrad region,Kamenskoe,21.552264,54.657032
693,Rural cottage architect Malakhov,architecture,Sverdlovsk region,Ekaterinburg,60.622502,56.79238
694,"Country prospectus, 42",architecture,St. Petersburg,St. Petersburg,30.336341,59.923491
695,Sackheim gate,architecture,Kaliningrad region,Kaliningrad,20.512733,54.710454
696,Castle Complex Pui,architecture,The Republic of Ingushetia,Puy,44.939588,42.804024
697,Castle Complex Pyaling,architecture,The Republic of Ingushetia,Pyaling,44.98798,42.825227
698,Castle Complex Hamyshki,architecture,The Republic of Ingushetia,Lyazhgi,44.734484,42.808773
699,Castle Georgenburg,architecture,Kaliningrad region,,21.218944,54.56009
700,Castle Labiau,architecture,Kaliningrad region,Polessk,21.10068,54.855486
701,Castle Levanova,architecture,Republic of North Ossetia - Alania,Lezgor,43.770268,43.015099
702,Castle Ragnit,architecture,Kaliningrad region,Neman,22.011392,55.036117
703,Castle Tapiau,architecture,Kaliningrad region,Gvardeysk,21.068862,54.635845
704,Castle Tilsit,architecture,Kaliningrad region,Sovetsk,21.888647,55.081029
705,Castle Cherchesova,architecture,Republic of North Ossetia - Alania,Tsamad,44.17434,42.862701
706,Castle frigate,architecture,Republic of North Ossetia - Alania,Zadalesk,43.803479,43.007689
707,Zachatskaya tower of Nizhny Novgorod Kremlin,architecture,Nizhny Novgorod Region,Nizhny Novgorod,Not found,
708,The belfry of St. Sophia Cathedral,architecture,Novgorod region,Novgorod,31.269915,58.52281
709,Building 12 boards,architecture,St. Petersburg,St. Petersburg,30.315868,59.939095
710,"The building of ""Batman""",architecture,Novosibirsk region,Novosibirsk,82.92043,55.030199
711,"The building of ""Grand Hotel""",architecture,Irkutsk region,Irkutsk,104.281047,52.287054
712,"The building of the ""House of Soviets""",architecture,Krasnodar region,Gelendzhik,38.048153,44.589733
713,The building of the Administration of the Smolensk region,architecture,Smolensk region,Smolensk,32.045251,54.782635
714,The building of the Administration of Volgograd,architecture,Volgograd region,Volgograd,44.588822,48.455318
715,The building of the Administration of Smolensk,architecture,Smolensk region,Smolensk,32.082333,54.770842
716,The building of the Academy of Sciences,architecture,St. Petersburg,St. Petersburg,30.315868,59.939095
717,The building of the Alexander Military School,architecture,Moscow,,Not found,
718,The building of the Alexander realschule,architecture,Tyumen region,Tyumen,Not found,
719,The building of the Alexander girls' school,architecture,Kurgan region,,Not found,
720,Arsenal building,architecture,Nizhny Novgorod Region,Nizhny Novgorod,44.006516,56.326797
721,Assignation Bank building,architecture,St. Petersburg,St. Petersburg,28.333888,60.333885
722,Stock Exchange building,architecture,St. Petersburg,St. Petersburg,30.315868,59.939095
723,The building of the Noble Assembly,architecture,Smolensk region,Smolensk,32.045251,54.782635
724,The building of the British Consulate,architecture,St. Petersburg,St. Petersburg,30.315868,59.939095
725,The building of the Warsaw Station,architecture,St. Petersburg,St. Petersburg,30.298989,59.907929
726,Building Verkhneudinsky district school,architecture,The Republic of Buryatia,Ulan-Ude,Not found,
727,Vladimir building of a secondary school,architecture,Nizhny Novgorod Region,Nizhny Novgorod,Not found,
728,The building of Vneshtorgbank,architecture,St. Petersburg,St. Petersburg,30.315868,59.939095
729,The building of the Volgograd distillery,architecture,Volgograd region,Volgograd,44.444149,48.690263
730,The building of the Admiralty,architecture,St. Petersburg,St. Petersburg,30.315868,59.939095
731,The General Staff building,architecture,St. Petersburg,St. Petersburg,30.315868,59.939095
732,buildings of Hlavpochtamta,architecture,Nenets Autonomous Okrug,Naryan-Mar,53.006926,67.63805
733,The building of the City Duma,architecture,Transbaikal region,Nerçinsk,116.585415,51.95948
734,The building of the City Children's Clinical Hospital,architecture,Novosibirsk region,Novosibirsk,Not found,
735,The building of the State Bank,architecture,Krasnodar region,Krasnodar,38.975313,45.03547
736,The building of the State Bank,architecture,Volgograd region,Volgograd,44.516948,48.707067
737,The building of Gostiny Dvor,architecture,Saratov region,Volsk,47.38729,52.045978
738,The building of the State Bank,architecture,Nizhny Novgorod Region,Nizhny Novgorod,44.006516,56.326797
739,Wedding Palace building,architecture,Altai region,Barnaul,83.776856,53.346785
740,The building of the Palace of Youth,architecture,Sverdlovsk region,Ekaterinburg,60.578197,56.906507
741,The building of the Noble Institute of Alexander II,architecture,Nizhny Novgorod Region,Nizhny Novgorod,Not found,
742,House of Soviets,architecture,The Republic of Buryatia,Ulan-Ude,107.585508,51.834703
743,Building children's creativity,architecture,Novosibirsk region,Novosibirsk,Not found,
744,The building houses the officers,architecture,Novosibirsk region,Novosibirsk,82.92043,55.030199
745,The building of the Department of Gendarmes,architecture,The Republic of Buryatia,Ulan-Ude,107.584574,51.834464
746,The building of the registrar,architecture,Mari El Republic,Yoshkar-Ola,47.886178,56.631595
747,The building of the district hospital,architecture,Yaroslavskaya oblast,,Not found,
748,Building Zemstvo,architecture,Saratov region,Volsk,47.38729,52.045978
749,building Ivselbanka,architecture,Ivanovo region,Ivanovo,40.973921,57.000348
750,The building of Institute of Systematics and Ecology of Animals,architecture,Novosibirsk region,Novosibirsk,82.92043,55.030199
751,The building of Kalmyk State University,architecture,Republic of Kalmykia,Elista,Not found,
752,Lyskovsky building plant,architecture,Nizhny Novgorod Region,Lıskovo,45.040962,56.021357
753,The building of the Mariinsky female grammar school,architecture,Sverdlovsk region,Irbit,Not found,
754,The building of the Medical Academy,architecture,Ivanovo region,Ivanovo,40.973921,57.000348
755,The building of the Academy of Medicine,architecture,Nizhny Novgorod Region,Nizhny Novgorod,44.006516,56.326797
756,Meshchanskaya building council,architecture,Amur region,Blagoveshchensk,127.527173,50.29064
757,The building of the Ministry of Youth and Sports of the Republic of Belarus,architecture,Republic of Bashkortostan,Ufa,55.958727,54.735147
758,Building Male progymnasium,architecture,Rostov region,Azov,39.423581,47.112442
759,The building of the Moscow City Hall,architecture,Moscow,,37.742815,55.642083
760,The building of the People's Khural of the Republic of Buryatia,architecture,The Republic of Buryatia,Ulan-Ude,Not found,
761,The building of the Nizhny Novgorod Drama Theater,architecture,Nizhny Novgorod Region,Nizhny Novgorod,Not found,
762,The building of the museum Obdorsk,architecture,Yamalo-Nenets Autonomous Okrug,Salekhard,66.614399,66.529844
763,Building Obukhov Hospital,architecture,St. Petersburg,St. Petersburg,30.320818,59.922165
764,The building of the national assembly,architecture,Transbaikal region,Nerçinsk,116.585415,51.95948
765,The building of the Novosibirsk Region Government (Krayispolkom),architecture,Novosibirsk region,Novosibirsk,82.92043,55.030199
766,Building public places (Pskov Cadet Corps),architecture,Pskov region,Pskov,28.332451,57.819274
767,building ICB,architecture,Volgograd region,Volgograd,44.516948,48.707067
768,Building vocational school them. Ekaterina and Fedor Berezin,architecture,Kurgan region,Mound,65.341118,55.441004
769,The building of the Russian-Chinese Bank,architecture,Novosibirsk region,Novosibirsk,82.92043,55.030199
770,Building of Senate and Synod,architecture,St. Petersburg,St. Petersburg,Not found,
771,The building of the Smolensk State University,architecture,Smolensk region,Smolensk,Not found,
772,The building of the Union of Siberian butter-making artisanal,architecture,Kurgan region,Mound,65.349437,55.500601
773,The building of the University of Technology,architecture,St. Petersburg,St. Petersburg,30.315868,59.939095
774,The building of the Chamber of Commerce,architecture,Krasnodar region,Krasnodar,38.975313,45.03547
775,"Building of the ""Zapsibzoloto""",architecture,Novosibirsk region,Novosibirsk,82.92043,55.030199
776,Building of the West-Siberian Railway,architecture,Novosibirsk region,Novosibirsk,Not found,
777,The building of the Federal Treasury,architecture,Nizhny Novgorod Region,Nizhny Novgorod,44.006516,56.326797
778,CEC building tips Siberia,architecture,The Republic of Buryatia,Ulan-Ude,107.585508,51.834703
779,The building of the Center of Information Technologies,architecture,Novosibirsk region,Novosibirsk,Not found,
780,The Central Hotel,architecture,Kirov region,Kirov,49.668014,58.603591
781,The building of the central office,architecture,St. Petersburg,,Not found,
782,Headquarters building Guards Corps,architecture,St. Petersburg,St. Petersburg,30.383871,59.969628
783,The building of the NAO Administration,architecture,Nenets Autonomous Okrug,Naryan-Mar,52.984019,67.640708
784,The building of the Altai Krai of the Russian-German House,architecture,Altai region,Barnaul,Not found,
785,The building of the American Hotel,architecture,Sverdlovsk region,Ekaterinburg,60.597465,56.838011
786,Apothecary Building Altshuler,architecture,Republic of Adygea,Maikop,40.098548,44.608865
787,Archives building 501st construction,architecture,Yamalo-Nenets Autonomous Okrug,Salekhard,Not found,
788,The building of the bishop's house,architecture,Nizhny Novgorod Region,Nizhny Novgorod,44.006516,56.326797
789,building Aeroclub,architecture,Novosibirsk region,Novosibirsk,82.92043,55.030199
790,The building is named after VG library Belinsky,architecture,Sverdlovsk region,Ekaterinburg,60.803674,56.75028
791,The building of the library name Tvardovskii,architecture,Smolensk region,Smolensk,32.063001,54.776934
792,The building of the former town school Vjatskogo,architecture,Kirov region,Kirov,Not found,
793,The building is the former home of the commune,architecture,Smolensk region,Smolensk,32.045251,54.782635
794,The building is a former religious school,architecture,Lipetsk region,Lipetsk,Not found,
795,The building of the former Institute of Oriental Languages,architecture,The Republic of Buryatia,Ulan-Ude,Not found,
796,"The building of the former cinema ""October""",architecture,Smolensk region,Smolensk,32.129279,54.816099
797,The building of the former elementary school,architecture,Yaroslavskaya oblast,Rybinsk,Not found,
798,The building of the former branch of the Russian-Asian Bank,architecture,Irkutsk region,Irkutsk,Not found,
799,The building of the former City Duma,architecture,Yaroslavskaya oblast,Uglich,Not found,
800,Building of the former City Council,architecture,Altai region,Barnaul,83.757507,53.328273
801,Building of the former City Council,architecture,Smolensk region,Smolensk,32.046329,54.781467
802,"The building of the former hotel ""Kazan""",architecture,Sverdlovsk region,Ekaterinburg,Not found,
803,"The building of the former Hotel ""Smolensk""",architecture,Smolensk region,Smolensk,32.045251,54.782635
804,Building of the former Post and Telegraph Office,architecture,The Republic of Buryatia,Ulan-Ude,Not found,
805,"Building domestic plant ""Rubin""",architecture,Sverdlovsk region,Ekaterinburg,60.379292,56.859365
806,"The City Airport ""North""",architecture,Novosibirsk region,Novosibirsk,82.92043,55.030199
807,The building of the city market,architecture,Leningrad region,Vyborg,28.749404,60.710232
808,city ​​school building named after MV Lomonosov,architecture,Nizhny Novgorod Region,Nizhny Novgorod,44.012239,56.311247
809,The building of the City Duma,architecture,St. Petersburg,St. Petersburg,30.224545,59.968597
810,City Council building,architecture,Vologda Region,Vologda,39.920484,59.214108
811,Building city clinic,architecture,Republic of Kalmykia,Elista,44.269759,46.307743
812,The building of the Town Council,architecture,Perm,Solikamsk,56.771029,59.648333
813,"The building of the hotel ""Golden Anchor""",architecture,Vologda Region,Vologda,Not found,
814,"The building of the hotel ""Intourist""",architecture,Volgograd region,Volgograd,44.516948,48.707067
815,"The building of the hotel ""cysts""",architecture,Sevastopol,,Not found,
816,"The building of the hotel ""Hermitage""",architecture,Vologda Region,Vologda,39.891523,59.220496
817,"The building of the hotel ""Hermitage"" VG Cherepanov",architecture,Sverdlovsk region,Ekaterinburg,Not found,
818,"The building of the hotel and restaurant ""Yar""",architecture,Moscow,,Not found,
819,The building of Gostiny Dvor,architecture,Tambov Region,Tambov,41.452274,52.721219
820,Building provincial classical gymnasium,architecture,Ulyanovsk region,Ulyanovsk,Not found,
821,The building of the provincial post office,architecture,Voronezh region,Voronezh,Not found,
822,The building of the Palace of Children and Youth,architecture,Smolensk region,Smolensk,Not found,
823,The building of the children's cultural center,architecture,Sverdlovsk region,Kamensk-Uralsky,Not found,
824,The building of the apartment building and I.S.Dorozhnova A.I.Terebilina,architecture,Nizhny Novgorod Region,Nizhny Novgorod,Not found,
825,The building of the Diocesan School,architecture,Amur region,Blagoveshchensk,127.527173,50.29064
826,The railway station building,architecture,Yaroslavskaya oblast,Rybinsk,38.858406,58.048454
827,"Railway station ""Novosibirsk-Main""",architecture,Novosibirsk region,Novosibirsk,82.89454,55.035318
828,The building of a girls' school im.D.K.Kromskogo,architecture,Belgorod region,Korocha,Not found,
829,The building of an abandoned hospital,architecture,Sverdlovsk region,Ekaterinburg,60.222904,57.062849
830,building of the plant,architecture,Penza region,Nikolsky,46.084356,53.71447
831,The building and the County council inorodcheskoy,architecture,Yamalo-Nenets Autonomous Okrug,Salekhard,Not found,
832,The building of the Zemstvo in Demyansk,architecture,Novgorod region,Demyansk,32.464423,57.642859
833,Building barracks Smolensk Infantry Regiment named after General NNRaevsky,architecture,Voronezh region,Voronezh,39.200269,51.660781
834,"The building committee ""Zabaykalles"" and Radio Committee",architecture,The Republic of Buryatia,Ulan-Ude,Not found,
835,"The building company ""VostSibUgol""",architecture,Irkutsk region,Irkutsk,104.281047,52.287054
836,The building of the consistory,architecture,Pskov region,Pskov,28.332451,57.819274
837,Building credit and commodity merchant store Abramov,architecture,Novosibirsk region,lower Chulym,Not found,
838,Building clinics of medical specialists,architecture,Sverdlovsk region,Ekaterinburg,60.597465,56.838011
839,The building of the Lutheran church,architecture,Smolensk region,Smolensk,32.045251,54.782635
840,The building of the Lutheran church in Melnikovo,architecture,Leningrad region,Melnikovo,29.772307,60.759873
841,FF building store Korotaeva,architecture,Amur region,Blagoveshchensk,Not found,
842,Building of meteorological station,architecture,Altai region,Barnaul,81.431661,53.791236
843,Building mineral baths,architecture,Lipetsk region,Lipetsk,39.59922,52.60882
844,The building of the gymnasium,architecture,Krasnoyarsk region,Pitorafik,92.173769,58.453069
845,The building is the gymnasium (high school №9),architecture,Sverdlovsk region,Ekaterinburg,60.597465,56.838011
846,Здание музея &quot;Русская старина&quot;,architecture,Smolensk region,Smolensk,Not found,
847,The building of musical school number 1,architecture,Volgograd region,Volgograd,44.516948,48.707067
848,The building of musical school №14,architecture,Volgograd region,Volgograd,44.516948,48.707067
849,City Hall,architecture,Novosibirsk region,Novosibirsk,82.92043,55.030199
850,Building on Kudrinskaya Square,architecture,Moscow,,37.65125,55.781383
851,"The building of Court wing of the museum ""Russian Antiquity""",architecture,Smolensk region,Smolensk,32.045251,54.782635
852,The building of the Nizhny Novgorod exchange,architecture,Nizhny Novgorod Region,Nizhny Novgorod,43.371857,56.64544
853,Okruzhkoma buildings of the CPSU (b),architecture,Yamalo-Nenets Autonomous Okrug,Salekhard,66.614399,66.529844
854,County Courthouse,architecture,Amur region,Blagoveshchensk,127.527173,50.29064
855,"The building of the hotel ""Baikal Plaza""",architecture,The Republic of Buryatia,Ulan-Ude,107.584574,51.834464
856,"The building of the hotel ""Metropol""",architecture,Novosibirsk region,Novosibirsk,82.92043,55.030199
857,Building steam mill Blagoveschensk,architecture,Amur region,Blagoveshchensk,Not found,
858,The building is the first polytechnic university housing,architecture,Nizhny Novgorod Region,Nizhny Novgorod,Not found,
859,The building is the first municipal public library named after VG Belinsky,architecture,Sverdlovsk region,Ekaterinburg,Not found,
860,The building is the first clinic,architecture,Novosibirsk region,Novosibirsk,82.92043,55.030199
861,"The building of the brewery ""Bohemia""",architecture,Yaroslavskaya oblast,Rybinsk,38.877774,58.053107
862,Post Office building,architecture,Kaluga region,Kaluga,36.261215,54.513845
863,The building of Posts and Telegraphs,architecture,Transbaikal region,Chita,Not found,
864,The building design organizations,architecture,Arhangelsk region,Arkhangelsk,40.515753,64.539911
865,River School building,architecture,Yaroslavskaya oblast,Rybinsk,38.858406,58.048454
866,synagogue,architecture,Volgograd region,Volgograd,44.516948,48.707067
867,Building siropitatelnogo shelter Elizabeth Medvednikova,architecture,Irkutsk region,Irkutsk,Not found,
868,Smolensk gymnasium building named Przhevalsky,architecture,Smolensk region,Smolensk,32.044379,54.784053
869,The building of the cathedral bell tower,architecture,Perm,Solikamsk,56.771029,59.648333
870,Luban building station,architecture,Leningrad region,,31.24858,59.349296
871,Technical School building ME Komarova,architecture,Yaroslavskaya oblast,Rybinsk,Not found,
872,"The building of the trading house ""E.Kuhterin and Sons""",architecture,Tomsk region,Tomsk,84.947649,56.48464
873,The building of the third branch of the gendarmerie,architecture,St. Petersburg,St. Petersburg,Not found,
874,The building of county official place,architecture,Voronezh region,Nižnedevick,Not found,
875,"The building is a department store ""Churin & Co"" in Blagoveshchensk",architecture,Amur region,Blagoveshchensk,127.527173,50.29064
876,Altai district administration building,architecture,Altai region,Barnaul,Not found,
877,Transbaikalian railway control building,architecture,Transbaikal region,Chita,Not found,
878,Building School. Gogol and Dostoevsky / Amur Regional Institute of Education Development,architecture,Amur region,Blagoveshchensk,Not found,
879,Building partnership factory in Nizhny Novgorod flax spinning factory,architecture,Nizhny Novgorod Region,Nizhny Novgorod,Not found,
880,The building branch Bogorodsko-Glukhov Manufactory,architecture,Novosibirsk region,Novosibirsk,Not found,
881,buildings Studios,architecture,Sverdlovsk region,Ekaterinburg,60.597465,56.838011
882,Building parochial school,architecture,Novgorod region,Parfino,31.646102,57.962973
883,"Tea razvesochnoy building of the Trading House ""IJ Churin and Co. """,architecture,Amur region,Blagoveshchensk,127.527173,50.29064
884,The building is a private bank,architecture,Nizhny Novgorod Region,Nizhny Novgorod,44.006516,56.326797
885,building drawing,architecture,Altai region,Barnaul,83.776856,53.346785
886,Building Chita synagogue,architecture,Transbaikal region,Chita,113.501049,52.033635
887,The school building named after Hero of the Soviet Union AN Arapova,architecture,Sverdlovsk region,Verkh-neyvinsky,60.127539,57.276334
888,Buildings public places,architecture,Yaroslavskaya oblast,Yaroslavl,39.893804,57.626559
889,office building Ekaterinburg State Bank,architecture,Sverdlovsk region,Ekaterinburg,60.642516,56.909235
890,Zelenograd museum of local lore,architecture,Kaliningrad region,zelenogradsk,20.475354,54.95993
891,Zemstvo,architecture,Yaroslavskaya oblast,Uglich,38.319372,57.526592
892,the Zemstvo,architecture,Perm,Solikamsk,56.771029,59.648333
893,the Zemstvo,architecture,Pskov region,Pskov,28.413452,57.785344
894,the Zemstvo,architecture,Yaroslavskaya oblast,Rybinsk,38.858406,58.048454
895,"Mirror Pond and Pavilion ""The glass jet""",architecture,Stavropol region,Kislovodsk,42.722483,43.924317
896,Winter Stadium (Mikhailovsky Manege),architecture,St. Petersburg,St. Petersburg,30.315868,59.939095
897,Winter Palace of Peter I,architecture,St. Petersburg,,30.297668,59.929263
898,Znamenskaya (Vlasievskaya) tower,architecture,Yaroslavskaya oblast,Yaroslavl,39.893804,57.626559
899,Ziryanovsk hospice,architecture,Perm,Kungur,56.944206,57.42881
900,Ivanovskaya tower of Nizhny Novgorod Kremlin,architecture,Nizhny Novgorod Region,Nizhny Novgorod,Not found,
901,"Having ""Help""",architecture,Tambov Region,Sovyetsk,42.357829,52.238747
902,The estate of the Romanovs in the village of Elbow,architecture,Bryansk region,Cubit,34.712169,52.655131
903,Imperial Foundling,architecture,Moscow,,37.598277,55.753671
904,Imperial pavilion,architecture,Nizhny Novgorod Region,Nizhny Novgorod,44.006516,56.326797
905,Imperial College deaf,architecture,St. Petersburg,St. Petersburg,30.315868,59.939095
906,Ingerburgskie gates,architecture,Leningrad region,Gatchina,30.124473,59.568492
907,Insterburg,architecture,Kaliningrad region,Chernyahovsk,21.819503,54.630706
908,Institute of Physiology. Pavlova,architecture,St. Petersburg,St. Petersburg,30.312356,59.978079
909,Irbitsky passage,architecture,Sverdlovsk region,Irbit,63.044162,57.671316
910,"Historical and archaeological and natural museum-reserve ""Manor Levasheva""",architecture,Nizhny Novgorod Region,Galibiha,45.615597,56.75525
911,Historical and archeological complex Salachik,architecture,Republic of Crimea,Bakhchisaray,33.926512,44.776819
912,"Historical and architectural complex ""Simbirsk defense line""",architecture,Ulyanovsk region,Ulyanovsk,48.403123,54.314192
913,"Historical and Architectural Museum ""Vyborg Castle""",architecture,Leningrad region,Vyborg,28.739379,60.724622
914,Historical Reserve - the ruins of the mill them. KN Grudinina,architecture,Volgograd region,,Not found,
915,The historic center of Dubovka,architecture,Volgograd region,Dubovka,44.826957,49.055369
916,Italian courtyard,architecture,Sevastopol,,33.525369,44.616604
917,Itsarinskaya tower,architecture,The Republic of Dagestan,,47.095742,42.259793
918,"Kazan street, 39",architecture,St. Petersburg,St. Petersburg,30.310227,59.9291
919,Kazan (Volga) Federal University,architecture,Republic of Tatarstan,Kazan,49.120455,55.787872
920,Breech women's gymnasium with a house church,architecture,Altai region,Barnaul,83.606769,53.399814
921,"Breech wine warehouse, 1901",architecture,Kirov region,Kirov,Not found,
922,Stone-old LeAnn tas,architecture,The Republic of Khakassia,Kazanovka,90.036102,53.221058
923,Merchant stone chambers Olisova and Church of the Assumption of the Virgin,architecture,Nizhny Novgorod Region,Nizhny Novgorod,Not found,
924,Stone House tradesman TA Samsonovich,architecture,The Republic of Buryatia,Ulan-Ude,107.584574,51.834464
925,Chamber Hall of the Pomeranian Philharmonic,architecture,Arhangelsk region,Arkhangelsk,40.515753,64.539911
926,The Office of the Kolyvan-Resurrection plants,architecture,Altai region,Barnaul,83.776856,53.346785
927,The Office of the buildings,architecture,St. Petersburg,St. Petersburg,29.137952,59.899676
928,Nicolai Chapel on the island Lyudvigshtayn,architecture,Leningrad region,Vyborg,28.725176,60.735528
929,Karaimskaya Keenan,architecture,Sevastopol,,33.525369,44.616604
930,Picture gallery Fish in the ranks,architecture,Kostroma region,Kostroma,Not found,
931,Cartouches in Totma,architecture,Vologda Region,Totma,42.758873,59.973487
932,leavened ranks,architecture,Kostroma region,Kostroma,40.924792,57.767568
933,Kiev railway station,architecture,Moscow,,37.566359,55.742975
934,Kylymovskyy dvorets,architecture,Republic of Bashkortostan,Carpeted,54.624594,54.769871
935,"Cinema ""Orion""",architecture,Belgorod region,Belgorod,36.587223,50.59566
936,"Cinema ""Victory"" (School Kulibina)",architecture,Volgograd region,Volgograd,44.449925,48.714112
937,"Cinema ""Art""",architecture,Irkutsk region,Irkutsk,104.281047,52.287054
938,"Church of the Holy Family, Kaliningrad (Kaliningrad Philharmonic Svetlanov)",architecture,Kaliningrad region,Kaliningrad,20.512733,54.710454
939,Chinese theater,architecture,Primorsky Krai,Vladivostok,131.885485,43.115536
940,Pantry tower of Nizhny Novgorod Kremlin,architecture,Nizhny Novgorod Region,Nizhny Novgorod,Not found,
941,Kozlov shaft in Vladimir,architecture,Vladimir region,,40.400499,56.124161
942,Kologrivsky agri-Technical School. FV Chizhov,architecture,Kostroma region,Ekimcevo,44.25605,58.827507
943,The bell tower of St. Nicholas Cathedral in Kalyazin,architecture,Tver region,kalyazin,Not found,
944,The bell tower of the Transfiguration Cathedral,architecture,Kirov region,,Not found,
945,"Bell tower of Trinity church, Znamenskaia",architecture,Ivanovo region,Lezhnev,40.885985,56.775343
946,Colonnade,architecture,Stavropol region,Kislovodsk,42.716796,43.905225
947,Commercial collection (Marfin House),architecture,Arhangelsk region,Arkhangelsk,40.515753,64.539911
948,commercial school,architecture,Yaroslavskaya oblast,Rybinsk,38.858406,58.048454
949,Complex Nicholas lighthouse,architecture,Khabarovsk region,,136.637034,51.695886
950,The complex of the former hospital of Upper Iset plant,architecture,Sverdlovsk region,Ekaterinburg,60.634835,56.751716
951,"The complex of high-rise buildings ""Grozny City""",architecture,Chechen Republic,formidable,45.697918,43.315788
952,"city ​​estate complex: house, doors, barn",architecture,Yamalo-Nenets Autonomous Okrug,Salekhard,Not found,
953,The complex of buildings of Yekaterinburg Alekseevskogo real school,architecture,Sverdlovsk region,Ekaterinburg,Not found,
954,The complex of buildings of the military almshouses and city hospital,architecture,Krasnodar region,Krasnodar,38.970956,45.011726
955,congress hall,architecture,Republic of Bashkortostan,Ufa,55.958727,54.735147
956,Horse Guards Manege,architecture,St. Petersburg,St. Petersburg,30.297776,59.933298
957,The office of the merchant AG Morozova,architecture,Altai region,Barnaul,Not found,
958,Manor VM office Lukin,architecture,Amur region,Blagoveshchensk,127.594655,50.342339
959,Concert Hall Makletskogo,architecture,Sverdlovsk region,Ekaterinburg,60.597465,56.838011
960,Stables area,architecture,St. Petersburg,St. Petersburg,30.326253,59.941024
961,Kopytenskie gates of the Smolensk fortress wall,architecture,Smolensk region,Smolensk,31.89675,54.823061
962,Korean Theater of Song-Zhu-Utai,architecture,Primorsky Krai,,135.815147,44.371852
963,the Royal Castle,architecture,Kaliningrad region,,20.55817,54.984088
964,Korolyevskiy numbers,architecture,Perm,Permian,56.36985,58.182201
965,Koromyslova tower of Nizhny Novgorod Kremlin,architecture,Nizhny Novgorod Region,Nizhny Novgorod,Not found,
966,Housing provincial official place,architecture,Kirov region,Kirov,Not found,
967,Kostel sv. Hyacinth,architecture,Leningrad region,Vyborg,28.749404,60.710232
968,Kostroma State Drama Theater named after A. Ostrovsky,architecture,Kostroma region,Kostroma,40.926858,57.767961
969,Regional Directorate of the Savings Bank of Russia,architecture,Krasnodar region,Krasnodar,38.981808,45.093225
970,the Red Square,architecture,Leningrad region,Vyborg,28.749512,60.710381
971,the Red Square,architecture,Moscow,,37.621031,55.753595
972,the Red Square,architecture,Kursk region,Kursk,36.192629,51.729312
973,Krasnogorsk watchtower,architecture,Karachay-Cherkess Republic,,41.886034,43.942287
974,Krasnoyarsk GES,architecture,Krasnoyarsk region,Divnogorsk,92.380148,55.957721
975,Krasnoyarsk GES,architecture,Krasnoyarsk region,Divnogorsk,92.380148,55.957721
976,Krasnoyarsk Big Ben,architecture,Krasnoyarsk region,Krasnoyarsk,92.956489,56.008661
977,Red Gostiny Dvor,architecture,Yaroslavskaya oblast,Rybinsk,38.858406,58.048454
978,Kremlin in Izmailovo,architecture,Moscow,,37.793822,55.777763
979,Gezlev fortress gates,architecture,Republic of Crimea,Yevpatoriya,33.367634,45.190629
980,Peasant Land Bank,architecture,Nizhny Novgorod Region,Nizhny Novgorod,44.006516,56.326797
981,round building,architecture,Belgorod region,Golovchino,35.801664,50.534347
982,Circum-Baikal Railway,architecture,Irkutsk region,Slyudyanka,103.729867,51.658512
983,Kuvshinovsky Compound,architecture,Amur region,Blagoveshchensk,127.527173,50.29064
984,"Cultural and historical complex ""Tsarovokokshaysky Kremlin""",architecture,Mari El Republic,Yoshkar-Ola,47.886178,56.631595
985,Kungurskoe Technical School Gubkin,architecture,Perm,Kungur,Not found,
986,Merchant Chamber of XVII century,architecture,Vladimir region,Gorohovets,Not found,
987,Mound Badger log,architecture,The Republic of Khakassia,Moscow,91.106121,53.928477
988,Kыz-Kermen and Tepe-Kermen,architecture,Republic of Crimea,parking,33.923233,44.699
989,Lazarevski barracks,architecture,Sevastopol,,33.525369,44.616604
990,Ландшафтный сквер &quot;Дворянское гнездо&quot;,architecture,Oryol Region,Eagle,36.05268,52.967176
991,bird home,architecture,Republic of Crimea,Haspra,34.128534,44.431153
992,Leningrad Station,architecture,Moscow,,37.655212,55.776451
993,Lermontov gallery,architecture,Stavropol region,Pyatigorsk,43.06448,44.062594
994,Lermontov's playground in Kislovodsk,architecture,Stavropol region,Kislovodsk,42.73788,43.868615
995,literature house,architecture,St. Petersburg,St. Petersburg,30.278606,59.958525
996,Lutheran Church Kakisalmi,architecture,Leningrad region,Priozersk,30.102797,61.035748
997,Moscow State University. MV Lomonosov,architecture,Moscow,,37.900479,55.414348
998,mausoleum of Azis,architecture,Republic of Crimea,,33.993751,45.389194
999,Mausoleum Borg-Kas,architecture,The Republic of Ingushetia,Pliev,44.83585,43.285444
1000,Shop AF Pakleŭski-Kozell,architecture,Tyumen region,Tyumen,65.534328,57.153033
1001,Shop MT Hurykova,architecture,Amur region,Blagoveshchensk,127.527173,50.29064
1002,Store PP Klabukova,architecture,Kirov region,Kirov,49.668014,58.603591
1003,Shop S. I. Ivanova,architecture,Tyumen region,Tyumen,65.534328,57.153033
1004,Store merchant JS Kardakov,architecture,Kirov region,Kirov,49.668014,58.603591
1005,"Shop trading house ""GP Kositsyn sons """,architecture,Amur region,Blagoveshchensk,127.599587,50.366046
1006,"Shops partnership ""Malakhov Brothers"" and Trade House ""V. Alekseev and his sons'",architecture,Amur region,Blagoveshchensk,127.527173,50.29064
1007,Maikop Gendarme Administration,architecture,Republic of Adygea,Maikop,40.098548,44.608865
1008,"Layout ""Architectural miniatures""",architecture,Smolensk region,Smolensk,32.045251,54.782635
1009,Small flour series,architecture,Kostroma region,Kostroma,40.924792,57.767568
1010,Small Marble Palace,architecture,St. Petersburg,St. Petersburg,30.297668,59.929263
1011,Maly Gostiny Dvor,architecture,Perm,Kungur,56.944206,57.42881
1012,Mandala - a sacred palace of sand,architecture,Republic of Kalmykia,,Not found,
1013,Manege of the Cadet Corps,architecture,St. Petersburg,St. Petersburg,30.383871,59.969628
1014,Manezh Square,architecture,St. Petersburg,St. Petersburg,30.340329,59.935899
1015,"Manufakturnыy shop ""Lyzhotyan""",architecture,Amur region,Blagoveshchensk,127.527173,50.29064
1016,Mariinsky Hospital,architecture,St. Petersburg,St. Petersburg,30.323216,59.879823
1017,Mariinsky Women's Institute,architecture,Nizhny Novgorod Region,Nizhny Novgorod,44.006516,56.326797
1018,oil ranks,architecture,Kostroma region,Kostroma,40.924792,57.767568
1019,Workshop manuals,architecture,Kirov region,Kirov,49.668014,58.603591
1020,Lighthouse,architecture,The Republic of Dagestan,Makhachkala,47.548583,42.938921
1021,Kalashnikov mill,architecture,Yaroslavskaya oblast,Rybinsk,38.858406,58.048454
1022,The mill and the estate Borel,architecture,Volgograd region,manufactory,44.687727,50.81906
1023,Merchant mill Barkov,architecture,Belgorod region,Novoivanovka,37.77264,50.920639
1024,Mills-stolbovki in Kimzha,architecture,Arhangelsk region,Kimja,44.038523,64.928708
1025,"Memorial ""Bald Mountain""",architecture,Volgograd region,,44.395334,48.642053
1026,Memorial Arch of Friendship,architecture,Kabardino-Balkar Republic,Nalchik,43.646166,43.500209
1027,Plaque Yesenin SA,architecture,St. Petersburg,St. Petersburg,28.993566,59.490493
1028,Memorial Russian and German soldiers' cemetery in Rossoshka,architecture,Volgograd region,,Not found,
1029,Memorial house-museum of the artist Ivan Krylov,architecture,Rostov region,Novocherkassk,40.093725,47.422052
1030,"The memorial complex ""Soldier Field""",architecture,Volgograd region,hillfort,44.476192,48.809658
1031,Location of Pushkin's duel,architecture,St. Petersburg,St. Petersburg,30.315868,59.939095
1032,Philistine police part of the fire-tower,architecture,Voronezh region,Voronezh,41.09222,51.354306
1033,Millionnaya Street 4,architecture,St. Petersburg,St. Petersburg,30.325354,59.943931
1034,Ministry of Foreign Affairs,architecture,Moscow,,Not found,
1035,Michael-Antonino-Kirillov siropitatelny house,architecture,Perm,Kungur,56.944206,57.42881
1036,Michael's tower,architecture,Pskov region,Pskov,28.35172,57.818775
1037,Michael's (Engineers) Castle,architecture,St. Petersburg,St. Petersburg,30.294201,59.899816
1038,Modern architectural appearance of Moscow,architecture,Moscow,,37.559838,55.85864
1039,"Mosaic ""Human and Space""",architecture,St. Petersburg,St. Petersburg,29.864896,60.657065
1040,Mosaic on the FSB building,architecture,Altai region,Barnaul,Not found,
1041,Spiritual house of worship of Christians (Molokans),architecture,Amur region,Blagoveshchensk,128.13341,51.689398
1042,Moskva-Siti,architecture,Moscow,,37.542581,55.74975
1043,Moscow outpost,architecture,Kostroma region,Kostroma,40.877945,57.749225
1044,Moscow area,architecture,St. Petersburg,St. Petersburg,30.323144,59.852154
1045,Moscow post office,architecture,Moscow,,37.346551,55.602144
1046,Mstislavskaya tower,architecture,Pskov region,Pskov,28.332451,57.819274
1047,Men's Gymnasium / Blagoveshchensk State Pedagogical University,architecture,Amur region,Blagoveshchensk,127.56334,50.264862
1048,"The museum ""House Masharova""",architecture,Tyumen region,Tyumen,65.551944,57.147653
1049,"Museum ""Literature. Art. XX Century """,architecture,Vologda Region,Vologda,Not found,
1050,"Museum ""Tula Kremlin""",architecture,Tula region,Tula,37.576169,54.177369
1051,"Museum ""Manor of Prince Golitsyn""",architecture,Perm,Usolye,Not found,
1052,mustard Museum,architecture,Volgograd region,,44.151406,49.615821
1053,Museum of Wooden Architecture,architecture,Vladimir region,Suzdal,40.449457,56.419836
1054,Tsaritsyn-Stalingrad Defense Museum,architecture,Volgograd region,Volgograd,44.541373,48.749066
1055,"Museum ""Nizhny Novgorod jail""",architecture,Nizhny Novgorod Region,Nizhny Novgorod,44.000336,56.323498
1056,"Museum ""Old Sarepta"". widow's house",architecture,Volgograd region,Volgograd,44.510435,48.522621
1057,"Museum ""Old Sarepta"". distillery",architecture,Volgograd region,Volgograd,44.510435,48.522621
1058,"Museum ""Old Sarepta"". Becker house",architecture,Volgograd region,Volgograd,44.510435,48.522621
1059,"Museum ""Old Sarepta"". house Langerfelda",architecture,Volgograd region,Volgograd,44.510435,48.522621
1060,"Museum ""Old Sarepta"". House Ritter-Hamel",architecture,Volgograd region,Volgograd,44.510435,48.522621
1061,"Museum ""Old Sarepta"". house apothecary",architecture,Volgograd region,Volgograd,44.510435,48.522621
1062,"Museum ""Old Sarepta"". The house of a rich colonist",architecture,Volgograd region,Volgograd,44.516948,48.707067
1063,"Museum ""Old Sarepta"". Residential house with a candle workshop",architecture,Volgograd region,Volgograd,44.516948,48.707067
1064,"Museum ""Old Sarepta"". The house is habitable and confectionery",architecture,Volgograd region,Volgograd,44.487304,48.685469
1065,"Museum ""Old Sarepta"". house colonist",architecture,Volgograd region,Volgograd,44.510435,48.522621
1066,"Museum ""Old Sarepta"". House unmarried sisters",architecture,Volgograd region,Volgograd,44.516948,48.707067
1067,"Museum ""Old Sarepta"". Manse",architecture,Volgograd region,Volgograd,44.510435,48.522621
1068,"Museum ""Old Sarepta"". Residential building colonist",architecture,Volgograd region,Volgograd,44.516948,48.707067
1069,"Museum ""Old Sarepta"". Stable",architecture,Volgograd region,Volgograd,44.510435,48.522621
1070,"Museum ""Old Sarepta"". Inn",architecture,Volgograd region,Volgograd,44.503348,48.535527
1071,"Museum ""Old Sarepta"". warehouses Knobloch",architecture,Volgograd region,Volgograd,44.510435,48.522621
1072,"Museum ""Old Sarepta"". Trade Shop Goldbach",architecture,Volgograd region,Volgograd,44.516948,48.707067
1073,"Museum ""Old Sarepta"". community council",architecture,Volgograd region,Volgograd,44.510435,48.522621
1074,"Museum-panorama ""Battle of Stalingrad""",architecture,Volgograd region,,Not found,
1075,Museum-Estate of VP Sukachev,architecture,Irkutsk region,Irkutsk,104.263125,52.287654
1076,Museum-Estate D. Venevitinov,architecture,Voronezh region,Novojivotinnoye,39.174029,51.883934
1077,Museum-Estate of Leo Tolstoy,architecture,Samara Region,Samara,50.077017,53.177667
1078,"The museum complex ""the House"" (a building of public places)",architecture,Vladimir region,Vladimir,40.406635,56.129057
1079,The Murmansk Railroad,architecture,The Republic of Karelia,,34.333386,61.80195
1080,Flour Gostiny Dvor,architecture,Yaroslavskaya oblast,Rybinsk,38.858406,58.048454
1081,Mytnaya yard,architecture,Yaroslavskaya oblast,Rostov,39.414526,57.185866
1082,Fontanka Embankment,architecture,St. Petersburg,St. Petersburg,30.310352,59.920321
1083,Narzan gallery,architecture,Stavropol region,Kislovodsk,42.716796,43.905225
1084,People's house,architecture,Amur region,Blagoveshchensk,128.13341,51.689398
1085,National house them. AS Pushkin,architecture,Primorsky Krai,Vladivostok,131.919486,43.128216
1086,Scientific Library named after NI Lobachevsky,architecture,Republic of Tatarstan,Kazan,49.121596,55.7947
1087,Nakhimov Naval School,architecture,St. Petersburg,St. Petersburg,29.512846,60.398299
1088,Nevyansk leaning tower,architecture,Sverdlovsk region,Nevyansk,60.218251,57.491225
1089,Necropolis of Artists,architecture,St. Petersburg,St. Petersburg,30.331652,59.937278
1090,Nizhny Novgorod Exchange,architecture,Nizhny Novgorod Region,Nizhny Novgorod,43.986116,56.321112
1091,Nizhny Novgorod Kremlin,architecture,Nizhny Novgorod Region,Nizhny Novgorod,44.002833,56.328619
1092,Nikolaev Triumphal Arch,architecture,Primorsky Krai,Vladivostok,131.885485,43.115536
1093,Nikolskaya tower of Nizhny Novgorod Kremlin,architecture,Nizhny Novgorod Region,Nizhny Novgorod,Not found,
1094,Nicholas gate tower,architecture,Smolensk region,Smolensk,32.063289,54.777666
1095,New Grain Exchange,architecture,Yaroslavskaya oblast,Rybinsk,38.80369,58.060721
1096,Novgorod Kremlin,architecture,Novgorod region,Novgorod,31.275619,58.521518
1097,Novobirzhevoy Gostiny Dvor,architecture,St. Petersburg,St. Petersburg,30.332756,59.934064
1098,Novodevichy cemetery,architecture,St. Petersburg,St. Petersburg,30.325525,59.897442
1099,Noyhauzen,architecture,Kaliningrad region,Guryevsk,20.586898,54.780423
